{
  "features": [
    {
      "type": "Feature",
      "geometry": {
        "coordinates": [
          1.906805399,
          41.52256137
        ],
        "type": "Point"
      },
      "properties": {
        "colors": null,
        "id": "AB2",
        "lines": [
          "R5",
          "R50",
          "R53",
          "S4"
        ],
        "name": "Abrera",
        "primary_color": "#888888",
        "stop_code": ""
      }
    },
    {
      "type": "Feature",
      "geometry": {
        "coordinates": [
          1.906805399,
          41.52256137
        ],
        "type": "Point"
      },
      "properties": {
        "colors": null,
        "id": "AB1",
        "lines": [
          "R5",
          "R50",
          "S4"
        ],
        "name": "Abrera",
        "primary_color": "#888888",
        "stop_code": ""
      }
    },
    {
      "type": "Feature",
      "geometry": {
        "coordinates": [
          0.686458,
          41.654738
        ],
        "type": "Point"
      },
      "properties": {
        "colors": null,
        "id": "AT1",
        "lines": [
          "RL1",
          "RL2"
        ],
        "name": "Alcoletge",
        "primary_color": "#888888",
        "stop_code": ""
      }
    },
    {
      "type": "Feature",
      "geometry": {
        "coordinates": [
          2.085251402,
          41.35306747
        ],
        "type": "Point"
      },
      "properties": {
        "colors": null,
        "id": "AL1",
        "lines": [
          "L8",
          "R5",
          "R50",
          "R6",
          "R60",
          "S3",
          "S4",
          "S8",
          "S9"
        ],
        "name": "Almeda",
        "primary_color": "#888888",
        "stop_code": ""
      }
    },
    {
      "type": "Feature",
      "geometry": {
        "coordinates": [
          2.085251402,
          41.35306747
        ],
        "type": "Point"
      },
      "properties": {
        "colors": null,
        "id": "AL2",
        "lines": [
          "L8",
          "R5",
          "R50",
          "R53",
          "R6",
          "R60",
          "R63",
          "S3",
          "S4",
          "S8",
          "S9"
        ],
        "name": "Almeda",
        "primary_color": "#888888",
        "stop_code": ""
      }
    },
    {
      "type": "Feature",
      "geometry": {
        "coordinates": [
          2.137162791,
          41.40964799
        ],
        "type": "Point"
      },
      "properties": {
        "colors": null,
        "id": "TB1",
        "lines": [
          "L7"
        ],
        "name": "Av. Tibidabo",
        "primary_color": "#888888",
        "stop_code": ""
      }
    },
    {
      "type": "Feature",
      "geometry": {
        "coordinates": [
          2.096936777,
          41.42009441
        ],
        "type": "Point"
      },
      "properties": {
        "colors": null,
        "id": "VL2",
        "lines": [
          "S1",
          "S2"
        ],
        "name": "Baixador de Vallvidrera",
        "primary_color": "#888888",
        "stop_code": ""
      }
    },
    {
      "type": "Feature",
      "geometry": {
        "coordinates": [
          2.096936777,
          41.42009441
        ],
        "type": "Point"
      },
      "properties": {
        "colors": null,
        "id": "VL1",
        "lines": [
          "S1",
          "S2"
        ],
        "name": "Baixador de Vallvidrera",
        "primary_color": "#888888",
        "stop_code": ""
      }
    },
    {
      "type": "Feature",
      "geometry": {
        "coordinates": [
          0.814761,
          41.789215
        ],
        "type": "Point"
      },
      "properties": {
        "colors": null,
        "id": "BG1",
        "lines": [
          "RL1",
          "RL2"
        ],
        "name": "Balaguer",
        "primary_color": "#888888",
        "stop_code": ""
      }
    },
    {
      "type": "Feature",
      "geometry": {
        "coordinates": [
          0.814761,
          41.789215
        ],
        "type": "Point"
      },
      "properties": {
        "colors": null,
        "id": "BG2",
        "lines": [
          "RL1",
          "RL2"
        ],
        "name": "Balaguer",
        "primary_color": "#888888",
        "stop_code": ""
      }
    },
    {
      "type": "Feature",
      "geometry": {
        "coordinates": [
          2.168720219,
          41.38563194
        ],
        "type": "Point"
      },
      "properties": {
        "colors": null,
        "id": "PC5",
        "lines": [
          "L7"
        ],
        "name": "Barcelona - Plaça Catalunya",
        "primary_color": "#888888",
        "stop_code": ""
      }
    },
    {
      "type": "Feature",
      "geometry": {
        "coordinates": [
          2.168720219,
          41.38563194
        ],
        "type": "Point"
      },
      "properties": {
        "colors": null,
        "id": "PC2",
        "lines": [
          "L6",
          "S1",
          "S2"
        ],
        "name": "Barcelona - Plaça Catalunya",
        "primary_color": "#888888",
        "stop_code": ""
      }
    },
    {
      "type": "Feature",
      "geometry": {
        "coordinates": [
          2.168720219,
          41.38563194
        ],
        "type": "Point"
      },
      "properties": {
        "colors": null,
        "id": "PC1",
        "lines": [
          "L6",
          "S1",
          "S2"
        ],
        "name": "Barcelona - Plaça Catalunya",
        "primary_color": "#888888",
        "stop_code": ""
      }
    },
    {
      "type": "Feature",
      "geometry": {
        "coordinates": [
          2.168720219,
          41.38563194
        ],
        "type": "Point"
      },
      "properties": {
        "colors": null,
        "id": "PC4",
        "lines": [
          "L7"
        ],
        "name": "Barcelona - Plaça Catalunya",
        "primary_color": "#888888",
        "stop_code": ""
      }
    },
    {
      "type": "Feature",
      "geometry": {
        "coordinates": [
          2.168720219,
          41.38563194
        ],
        "type": "Point"
      },
      "properties": {
        "colors": null,
        "id": "PC3",
        "lines": [
          "S2"
        ],
        "name": "Barcelona - Plaça Catalunya",
        "primary_color": "#888888",
        "stop_code": ""
      }
    },
    {
      "type": "Feature",
      "geometry": {
        "coordinates": [
          2.148458333,
          41.3747199
        ],
        "type": "Point"
      },
      "properties": {
        "colors": null,
        "id": "PE3",
        "lines": [
          "L8",
          "R5",
          "R50",
          "R53",
          "R6",
          "S3",
          "S4",
          "S8",
          "S9"
        ],
        "name": "Barcelona - Plaça Espanya",
        "primary_color": "#888888",
        "stop_code": ""
      }
    },
    {
      "type": "Feature",
      "geometry": {
        "coordinates": [
          2.148458333,
          41.3747199
        ],
        "type": "Point"
      },
      "properties": {
        "colors": null,
        "id": "PE1",
        "lines": [
          "L8",
          "R5",
          "R53",
          "R6",
          "R60",
          "R63",
          "S3",
          "S4",
          "S8",
          "S9"
        ],
        "name": "Barcelona - Plaça Espanya",
        "primary_color": "#888888",
        "stop_code": ""
      }
    },
    {
      "type": "Feature",
      "geometry": {
        "coordinates": [
          2.148458333,
          41.3747199
        ],
        "type": "Point"
      },
      "properties": {
        "colors": null,
        "id": "PE4",
        "lines": [
          "L8",
          "R5",
          "R50",
          "R6",
          "R60",
          "S3",
          "S4",
          "S8"
        ],
        "name": "Barcelona - Plaça Espanya",
        "primary_color": "#888888",
        "stop_code": ""
      }
    },
    {
      "type": "Feature",
      "geometry": {
        "coordinates": [
          2.148458333,
          41.3747199
        ],
        "type": "Point"
      },
      "properties": {
        "colors": null,
        "id": "PE2",
        "lines": [
          "L8",
          "R5",
          "R53",
          "R6",
          "R63",
          "S3",
          "S4",
          "S8",
          "S9"
        ],
        "name": "Barcelona - Plaça Espanya",
        "primary_color": "#888888",
        "stop_code": ""
      }
    },
    {
      "type": "Feature",
      "geometry": {
        "coordinates": [
          2.090556583,
          41.50085844
        ],
        "type": "Point"
      },
      "properties": {
        "colors": null,
        "id": "BT1",
        "lines": [
          "S2"
        ],
        "name": "Bellaterra",
        "primary_color": "#888888",
        "stop_code": ""
      }
    },
    {
      "type": "Feature",
      "geometry": {
        "coordinates": [
          2.090556583,
          41.50085844
        ],
        "type": "Point"
      },
      "properties": {
        "colors": null,
        "id": "BT2",
        "lines": [
          "S2"
        ],
        "name": "Bellaterra",
        "primary_color": "#888888",
        "stop_code": ""
      }
    },
    {
      "type": "Feature",
      "geometry": {
        "coordinates": [
          2.100463866,
          41.542522966
        ],
        "type": "Point"
      },
      "properties": {
        "colors": null,
        "id": "CF1",
        "lines": [
          "S2"
        ],
        "name": "Can Feu - Gràcia",
        "primary_color": "#888888",
        "stop_code": ""
      }
    },
    {
      "type": "Feature",
      "geometry": {
        "coordinates": [
          2.100463866,
          41.542522966
        ],
        "type": "Point"
      },
      "properties": {
        "colors": null,
        "id": "CF2",
        "lines": [
          "S2"
        ],
        "name": "Can Feu - Gràcia",
        "primary_color": "#888888",
        "stop_code": ""
      }
    },
    {
      "type": "Feature",
      "geometry": {
        "coordinates": [
          1.830813063,
          41.50222357
        ],
        "type": "Point"
      },
      "properties": {
        "colors": null,
        "id": "CP1",
        "lines": [
          "R6",
          "R63"
        ],
        "name": "Can Parellada",
        "primary_color": "#888888",
        "stop_code": ""
      }
    },
    {
      "type": "Feature",
      "geometry": {
        "coordinates": [
          2.005346458,
          41.39882061
        ],
        "type": "Point"
      },
      "properties": {
        "colors": null,
        "id": "CR1",
        "lines": [
          "R5",
          "R6",
          "S3",
          "S4",
          "S8",
          "S9"
        ],
        "name": "Can Ros",
        "primary_color": "#888888",
        "stop_code": ""
      }
    },
    {
      "type": "Feature",
      "geometry": {
        "coordinates": [
          2.005346458,
          41.39882061
        ],
        "type": "Point"
      },
      "properties": {
        "colors": null,
        "id": "CR2",
        "lines": [
          "R5",
          "R53",
          "R6",
          "R63",
          "S3",
          "S4",
          "S8",
          "S9"
        ],
        "name": "Can Ros",
        "primary_color": "#888888",
        "stop_code": ""
      }
    },
    {
      "type": "Feature",
      "geometry": {
        "coordinates": [
          1.695130725,
          41.52153533
        ],
        "type": "Point"
      },
      "properties": {
        "colors": null,
        "id": "CA2",
        "lines": [
          "R6",
          "R60",
          "R63"
        ],
        "name": "Capellades",
        "primary_color": "#888888",
        "stop_code": ""
      }
    },
    {
      "type": "Feature",
      "geometry": {
        "coordinates": [
          1.695130725,
          41.52153533
        ],
        "type": "Point"
      },
      "properties": {
        "colors": null,
        "id": "CA1",
        "lines": [
          "R6",
          "R60"
        ],
        "name": "Capellades",
        "primary_color": "#888888",
        "stop_code": ""
      }
    },
    {
      "type": "Feature",
      "geometry": {
        "coordinates": [
          1.854793522,
          41.64051706
        ],
        "type": "Point"
      },
      "properties": {
        "colors": null,
        "id": "CB1",
        "lines": [
          "R5",
          "R53"
        ],
        "name": "Castellbell i El Vilar",
        "primary_color": "#888888",
        "stop_code": ""
      }
    },
    {
      "type": "Feature",
      "geometry": {
        "coordinates": [
          0.882707,
          42.058631
        ],
        "type": "Point"
      },
      "properties": {
        "colors": null,
        "id": "LL1",
        "lines": [
          "RL2"
        ],
        "name": "Cellers-Llimiana",
        "primary_color": "#888888",
        "stop_code": ""
      }
    },
    {
      "type": "Feature",
      "geometry": {
        "coordinates": [
          2.031859416,
          41.36386336
        ],
        "type": "Point"
      },
      "properties": {
        "colors": null,
        "id": "CG2",
        "lines": [
          "R53",
          "R63",
          "S3",
          "S4",
          "S8",
          "S9"
        ],
        "name": "Colònia Güell",
        "primary_color": "#888888",
        "stop_code": ""
      }
    },
    {
      "type": "Feature",
      "geometry": {
        "coordinates": [
          2.031859416,
          41.36386336
        ],
        "type": "Point"
      },
      "properties": {
        "colors": null,
        "id": "CG1",
        "lines": [
          "S3",
          "S4",
          "S8",
          "S9"
        ],
        "name": "Colònia Güell",
        "primary_color": "#888888",
        "stop_code": ""
      }
    },
    {
      "type": "Feature",
      "geometry": {
        "coordinates": [
          2.071263627,
          41.35147828
        ],
        "type": "Point"
      },
      "properties": {
        "colors": null,
        "id": "CO1",
        "lines": [
          "L8",
          "R5",
          "R50",
          "R6",
          "R60",
          "S3",
          "S4",
          "S8",
          "S9"
        ],
        "name": "Cornellà Riera",
        "primary_color": "#888888",
        "stop_code": ""
      }
    },
    {
      "type": "Feature",
      "geometry": {
        "coordinates": [
          2.071263627,
          41.35147828
        ],
        "type": "Point"
      },
      "properties": {
        "colors": null,
        "id": "CO2",
        "lines": [
          "L8",
          "R5",
          "R50",
          "R53",
          "R6",
          "R60",
          "R63",
          "S3",
          "S4",
          "S8",
          "S9"
        ],
        "name": "Cornellà Riera",
        "primary_color": "#888888",
        "stop_code": ""
      }
    },
    {
      "type": "Feature",
      "geometry": {
        "coordinates": [
          1.9622947,
          41.45588074
        ],
        "type": "Point"
      },
      "properties": {
        "colors": null,
        "id": "PL2",
        "lines": [
          "R5",
          "R53",
          "R6",
          "R63",
          "S4",
          "S8"
        ],
        "name": "El Palau",
        "primary_color": "#888888",
        "stop_code": ""
      }
    },
    {
      "type": "Feature",
      "geometry": {
        "coordinates": [
          1.9622947,
          41.45588074
        ],
        "type": "Point"
      },
      "properties": {
        "colors": null,
        "id": "PL1",
        "lines": [
          "R5",
          "R6",
          "S4",
          "S8"
        ],
        "name": "El Palau",
        "primary_color": "#888888",
        "stop_code": ""
      }
    },
    {
      "type": "Feature",
      "geometry": {
        "coordinates": [
          2.139151477,
          41.40582569
        ],
        "type": "Point"
      },
      "properties": {
        "colors": null,
        "id": "EP1",
        "lines": [
          "L7"
        ],
        "name": "El Putxet",
        "primary_color": "#888888",
        "stop_code": ""
      }
    },
    {
      "type": "Feature",
      "geometry": {
        "coordinates": [
          2.139151477,
          41.40582569
        ],
        "type": "Point"
      },
      "properties": {
        "colors": null,
        "id": "EP2",
        "lines": [
          "L7"
        ],
        "name": "El Putxet",
        "primary_color": "#888888",
        "stop_code": ""
      }
    },
    {
      "type": "Feature",
      "geometry": {
        "coordinates": [
          2.124199344,
          41.35655892
        ],
        "type": "Point"
      },
      "properties": {
        "colors": null,
        "id": "EU1",
        "lines": [
          "L8",
          "R5",
          "R50",
          "R6",
          "R60",
          "S3",
          "S4",
          "S8",
          "S9"
        ],
        "name": "Europa | Fira",
        "primary_color": "#888888",
        "stop_code": ""
      }
    },
    {
      "type": "Feature",
      "geometry": {
        "coordinates": [
          2.124199344,
          41.35655892
        ],
        "type": "Point"
      },
      "properties": {
        "colors": null,
        "id": "EU2",
        "lines": [
          "L8",
          "R5",
          "R50",
          "R53",
          "R6",
          "R60",
          "R63",
          "S3",
          "S4",
          "S8",
          "S9"
        ],
        "name": "Europa | Fira",
        "primary_color": "#888888",
        "stop_code": ""
      }
    },
    {
      "type": "Feature",
      "geometry": {
        "coordinates": [
          0.812079,
          41.823301
        ],
        "type": "Point"
      },
      "properties": {
        "colors": null,
        "id": "GB1",
        "lines": [
          "RL2"
        ],
        "name": "Gerb",
        "primary_color": "#888888",
        "stop_code": ""
      }
    },
    {
      "type": "Feature",
      "geometry": {
        "coordinates": [
          2.117431558,
          41.35488589
        ],
        "type": "Point"
      },
      "properties": {
        "colors": null,
        "id": "GO2",
        "lines": [
          "L8",
          "R5",
          "R50",
          "R53",
          "R6",
          "R60",
          "R63",
          "S3",
          "S4",
          "S8",
          "S9"
        ],
        "name": "Gornal",
        "primary_color": "#888888",
        "stop_code": ""
      }
    },
    {
      "type": "Feature",
      "geometry": {
        "coordinates": [
          2.117431558,
          41.35488589
        ],
        "type": "Point"
      },
      "properties": {
        "colors": null,
        "id": "GO1",
        "lines": [
          "L8",
          "R5",
          "R50",
          "R6",
          "R60",
          "S3",
          "S4",
          "S8",
          "S9"
        ],
        "name": "Gornal",
        "primary_color": "#888888",
        "stop_code": ""
      }
    },
    {
      "type": "Feature",
      "geometry": {
        "coordinates": [
          2.152662325,
          41.39909823
        ],
        "type": "Point"
      },
      "properties": {
        "colors": null,
        "id": "GR4",
        "lines": [
          "L7"
        ],
        "name": "Gràcia",
        "primary_color": "#888888",
        "stop_code": ""
      }
    },
    {
      "type": "Feature",
      "geometry": {
        "coordinates": [
          2.152662325,
          41.39909823
        ],
        "type": "Point"
      },
      "properties": {
        "colors": null,
        "id": "GR3",
        "lines": [
          "L7"
        ],
        "name": "Gràcia",
        "primary_color": "#888888",
        "stop_code": ""
      }
    },
    {
      "type": "Feature",
      "geometry": {
        "coordinates": [
          2.152662325,
          41.39909823
        ],
        "type": "Point"
      },
      "properties": {
        "colors": null,
        "id": "GR2",
        "lines": [
          "L6",
          "S1",
          "S2"
        ],
        "name": "Gràcia",
        "primary_color": "#888888",
        "stop_code": ""
      }
    },
    {
      "type": "Feature",
      "geometry": {
        "coordinates": [
          2.152662325,
          41.39909823
        ],
        "type": "Point"
      },
      "properties": {
        "colors": null,
        "id": "GR1",
        "lines": [
          "L6",
          "S1",
          "S2"
        ],
        "name": "Gràcia",
        "primary_color": "#888888",
        "stop_code": ""
      }
    },
    {
      "type": "Feature",
      "geometry": {
        "coordinates": [
          0.88809,
          42.101399
        ],
        "type": "Point"
      },
      "properties": {
        "colors": null,
        "id": "GT1",
        "lines": [
          "RL2"
        ],
        "name": "Guardia de Tremp",
        "primary_color": "#888888",
        "stop_code": ""
      }
    },
    {
      "type": "Feature",
      "geometry": {
        "coordinates": [
          2.046514894,
          41.47620923
        ],
        "type": "Point"
      },
      "properties": {
        "colors": null,
        "id": "HG2",
        "lines": [
          "S1"
        ],
        "name": "Hospital General",
        "primary_color": "#888888",
        "stop_code": ""
      }
    },
    {
      "type": "Feature",
      "geometry": {
        "coordinates": [
          2.046514894,
          41.47620923
        ],
        "type": "Point"
      },
      "properties": {
        "colors": null,
        "id": "HG1",
        "lines": [
          "S1"
        ],
        "name": "Hospital General",
        "primary_color": "#888888",
        "stop_code": ""
      }
    },
    {
      "type": "Feature",
      "geometry": {
        "coordinates": [
          1.629951133,
          41.57802651
        ],
        "type": "Point"
      },
      "properties": {
        "colors": null,
        "id": "IG2",
        "lines": [
          "R6",
          "R60",
          "R63"
        ],
        "name": "Igualada",
        "primary_color": "#888888",
        "stop_code": ""
      }
    },
    {
      "type": "Feature",
      "geometry": {
        "coordinates": [
          1.629951133,
          41.57802651
        ],
        "type": "Point"
      },
      "properties": {
        "colors": null,
        "id": "IG1",
        "lines": [
          "R6",
          "R63"
        ],
        "name": "Igualada",
        "primary_color": "#888888",
        "stop_code": ""
      }
    },
    {
      "type": "Feature",
      "geometry": {
        "coordinates": [
          2.130023266,
          41.36090867
        ],
        "type": "Point"
      },
      "properties": {
        "colors": null,
        "id": "IC1",
        "lines": [
          "L8",
          "R5",
          "R50",
          "R6",
          "R60",
          "S3",
          "S4",
          "S8",
          "S9"
        ],
        "name": "Ildefons Cerdà",
        "primary_color": "#888888",
        "stop_code": ""
      }
    },
    {
      "type": "Feature",
      "geometry": {
        "coordinates": [
          2.130023266,
          41.36090867
        ],
        "type": "Point"
      },
      "properties": {
        "colors": null,
        "id": "IC2",
        "lines": [
          "L8",
          "R5",
          "R50",
          "R53",
          "R6",
          "R60",
          "R63",
          "S3",
          "S4",
          "S8",
          "S9"
        ],
        "name": "Ildefons Cerdà",
        "primary_color": "#888888",
        "stop_code": ""
      }
    },
    {
      "type": "Feature",
      "geometry": {
        "coordinates": [
          2.102709519,
          41.35793378
        ],
        "type": "Point"
      },
      "properties": {
        "colors": null,
        "id": "LH2",
        "lines": [
          "L8",
          "R5",
          "R50",
          "R53",
          "R6",
          "R60",
          "R63",
          "S3",
          "S4",
          "S8",
          "S9"
        ],
        "name": "L'Hospitalet Av. Carrilet",
        "primary_color": "#888888",
        "stop_code": ""
      }
    },
    {
      "type": "Feature",
      "geometry": {
        "coordinates": [
          2.102709519,
          41.35793378
        ],
        "type": "Point"
      },
      "properties": {
        "colors": null,
        "id": "LH4",
        "lines": [
          "R63"
        ],
        "name": "L'Hospitalet Av. Carrilet",
        "primary_color": "#888888",
        "stop_code": ""
      }
    },
    {
      "type": "Feature",
      "geometry": {
        "coordinates": [
          2.102709519,
          41.35793378
        ],
        "type": "Point"
      },
      "properties": {
        "colors": null,
        "id": "LH3",
        "lines": [
          "S8"
        ],
        "name": "L'Hospitalet Av. Carrilet",
        "primary_color": "#888888",
        "stop_code": ""
      }
    },
    {
      "type": "Feature",
      "geometry": {
        "coordinates": [
          2.102709519,
          41.35793378
        ],
        "type": "Point"
      },
      "properties": {
        "colors": null,
        "id": "LH1",
        "lines": [
          "L8",
          "R5",
          "R50",
          "R6",
          "R60",
          "S3",
          "S4",
          "S8",
          "S9"
        ],
        "name": "L'Hospitalet Av. Carrilet",
        "primary_color": "#888888",
        "stop_code": ""
      }
    },
    {
      "type": "Feature",
      "geometry": {
        "coordinates": [
          1.838788972,
          41.5017639
        ],
        "type": "Point"
      },
      "properties": {
        "colors": null,
        "id": "BE1",
        "lines": [
          "R6",
          "R63"
        ],
        "name": "La Beguda",
        "primary_color": "#888888",
        "stop_code": ""
      }
    },
    {
      "type": "Feature",
      "geometry": {
        "coordinates": [
          2.136433966,
          41.39781569
        ],
        "type": "Point"
      },
      "properties": {
        "colors": null,
        "id": "BN1",
        "lines": [
          "L6",
          "S1",
          "S2"
        ],
        "name": "La Bonanova",
        "primary_color": "#888888",
        "stop_code": ""
      }
    },
    {
      "type": "Feature",
      "geometry": {
        "coordinates": [
          2.136433966,
          41.39781569
        ],
        "type": "Point"
      },
      "properties": {
        "colors": null,
        "id": "BN2",
        "lines": [
          "L6",
          "S1",
          "S2"
        ],
        "name": "La Bonanova",
        "primary_color": "#888888",
        "stop_code": ""
      }
    },
    {
      "type": "Feature",
      "geometry": {
        "coordinates": [
          2.100385,
          41.554954
        ],
        "type": "Point"
      },
      "properties": {
        "colors": null,
        "id": "CT1",
        "lines": [
          "S2"
        ],
        "name": "La Creu Alta",
        "primary_color": "#888888",
        "stop_code": ""
      }
    },
    {
      "type": "Feature",
      "geometry": {
        "coordinates": [
          2.100385,
          41.554954
        ],
        "type": "Point"
      },
      "properties": {
        "colors": null,
        "id": "CT2",
        "lines": [
          "S2"
        ],
        "name": "La Creu Alta",
        "primary_color": "#888888",
        "stop_code": ""
      }
    },
    {
      "type": "Feature",
      "geometry": {
        "coordinates": [
          2.073166144,
          41.44487408
        ],
        "type": "Point"
      },
      "properties": {
        "colors": null,
        "id": "LF1",
        "lines": [
          "S1",
          "S2"
        ],
        "name": "La Floresta",
        "primary_color": "#888888",
        "stop_code": ""
      }
    },
    {
      "type": "Feature",
      "geometry": {
        "coordinates": [
          2.073166144,
          41.44487408
        ],
        "type": "Point"
      },
      "properties": {
        "colors": null,
        "id": "LF2",
        "lines": [
          "S1",
          "S2"
        ],
        "name": "La Floresta",
        "primary_color": "#888888",
        "stop_code": ""
      }
    },
    {
      "type": "Feature",
      "geometry": {
        "coordinates": [
          1.677906247,
          41.55461094
        ],
        "type": "Point"
      },
      "properties": {
        "colors": null,
        "id": "PO1",
        "lines": [
          "R6"
        ],
        "name": "La Pobla de Claramunt",
        "primary_color": "#888888",
        "stop_code": ""
      }
    },
    {
      "type": "Feature",
      "geometry": {
        "coordinates": [
          1.677906247,
          41.55461094
        ],
        "type": "Point"
      },
      "properties": {
        "colors": null,
        "id": "PO2",
        "lines": [
          "R6",
          "R60",
          "R63"
        ],
        "name": "La Pobla de Claramunt",
        "primary_color": "#888888",
        "stop_code": ""
      }
    },
    {
      "type": "Feature",
      "geometry": {
        "coordinates": [
          0.965917,
          42.239877
        ],
        "type": "Point"
      },
      "properties": {
        "colors": null,
        "id": "PS1",
        "lines": [
          "RL2"
        ],
        "name": "La Pobla de Segur",
        "primary_color": "#888888",
        "stop_code": ""
      }
    },
    {
      "type": "Feature",
      "geometry": {
        "coordinates": [
          2.033582202,
          41.52846982
        ],
        "type": "Point"
      },
      "properties": {
        "colors": null,
        "id": "FN2",
        "lines": [
          "S1"
        ],
        "name": "Les Fonts",
        "primary_color": "#888888",
        "stop_code": ""
      }
    },
    {
      "type": "Feature",
      "geometry": {
        "coordinates": [
          2.033582202,
          41.52846982
        ],
        "type": "Point"
      },
      "properties": {
        "colors": null,
        "id": "FN1",
        "lines": [
          "S1"
        ],
        "name": "Les Fonts",
        "primary_color": "#888888",
        "stop_code": ""
      }
    },
    {
      "type": "Feature",
      "geometry": {
        "coordinates": [
          2.0916176,
          41.42740264
        ],
        "type": "Point"
      },
      "properties": {
        "colors": null,
        "id": "LP2",
        "lines": [
          "S1",
          "S2"
        ],
        "name": "Les Planes",
        "primary_color": "#888888",
        "stop_code": ""
      }
    },
    {
      "type": "Feature",
      "geometry": {
        "coordinates": [
          2.0916176,
          41.42740264
        ],
        "type": "Point"
      },
      "properties": {
        "colors": null,
        "id": "LP1",
        "lines": [
          "S1",
          "S2"
        ],
        "name": "Les Planes",
        "primary_color": "#888888",
        "stop_code": ""
      }
    },
    {
      "type": "Feature",
      "geometry": {
        "coordinates": [
          2.130811822,
          41.39780042
        ],
        "type": "Point"
      },
      "properties": {
        "colors": null,
        "id": "TT1",
        "lines": [
          "L6",
          "S1",
          "S2"
        ],
        "name": "Les Tres Torres",
        "primary_color": "#888888",
        "stop_code": ""
      }
    },
    {
      "type": "Feature",
      "geometry": {
        "coordinates": [
          2.130811822,
          41.39780042
        ],
        "type": "Point"
      },
      "properties": {
        "colors": null,
        "id": "TT2",
        "lines": [
          "L6",
          "S1",
          "S2"
        ],
        "name": "Les Tres Torres",
        "primary_color": "#888888",
        "stop_code": ""
      }
    },
    {
      "type": "Feature",
      "geometry": {
        "coordinates": [
          0.633672,
          41.620098
        ],
        "type": "Point"
      },
      "properties": {
        "colors": null,
        "id": "LE2",
        "lines": [
          "RL1",
          "RL2"
        ],
        "name": "Lleida",
        "primary_color": "#888888",
        "stop_code": ""
      }
    },
    {
      "type": "Feature",
      "geometry": {
        "coordinates": [
          0.633672,
          41.620098
        ],
        "type": "Point"
      },
      "properties": {
        "colors": null,
        "id": "LE1",
        "lines": [
          "RL1",
          "RL2"
        ],
        "name": "Lleida",
        "primary_color": "#888888",
        "stop_code": ""
      }
    },
    {
      "type": "Feature",
      "geometry": {
        "coordinates": [
          2.138879447,
          41.36748768
        ],
        "type": "Point"
      },
      "properties": {
        "colors": null,
        "id": "MG1",
        "lines": [
          "L8",
          "R5",
          "R6",
          "S3",
          "S4",
          "S8",
          "S9"
        ],
        "name": "Magòria La Campana",
        "primary_color": "#888888",
        "stop_code": ""
      }
    },
    {
      "type": "Feature",
      "geometry": {
        "coordinates": [
          2.138879447,
          41.36748768
        ],
        "type": "Point"
      },
      "properties": {
        "colors": null,
        "id": "MG2",
        "lines": [
          "L8",
          "R5",
          "R53",
          "R6",
          "R63",
          "S3",
          "S4",
          "S8",
          "S9"
        ],
        "name": "Magòria La Campana",
        "primary_color": "#888888",
        "stop_code": ""
      }
    },
    {
      "type": "Feature",
      "geometry": {
        "coordinates": [
          1.83398595,
          41.72436991
        ],
        "type": "Point"
      },
      "properties": {
        "colors": null,
        "id": "VI1",
        "lines": [
          "R5",
          "R50",
          "R53"
        ],
        "name": "Manresa Viladordis",
        "primary_color": "#888888",
        "stop_code": ""
      }
    },
    {
      "type": "Feature",
      "geometry": {
        "coordinates": [
          1.832986,
          41.73224
        ],
        "type": "Point"
      },
      "properties": {
        "colors": null,
        "id": "MA1",
        "lines": [
          "R5",
          "R50"
        ],
        "name": "Manresa-Alta",
        "primary_color": "#888888",
        "stop_code": ""
      }
    },
    {
      "type": "Feature",
      "geometry": {
        "coordinates": [
          1.832986,
          41.73224
        ],
        "type": "Point"
      },
      "properties": {
        "colors": null,
        "id": "MA2",
        "lines": [
          "R5",
          "R50",
          "R53"
        ],
        "name": "Manresa-Alta",
        "primary_color": "#888888",
        "stop_code": ""
      }
    },
    {
      "type": "Feature",
      "geometry": {
        "coordinates": [
          1.827904,
          41.731457
        ],
        "type": "Point"
      },
      "properties": {
        "colors": null,
        "id": "MB2",
        "lines": [
          "R5",
          "R50",
          "R53"
        ],
        "name": "Manresa-Baixador",
        "primary_color": "#888888",
        "stop_code": ""
      }
    },
    {
      "type": "Feature",
      "geometry": {
        "coordinates": [
          1.827904,
          41.731457
        ],
        "type": "Point"
      },
      "properties": {
        "colors": null,
        "id": "MB1",
        "lines": [
          "R5",
          "R50"
        ],
        "name": "Manresa-Baixador",
        "primary_color": "#888888",
        "stop_code": ""
      }
    },
    {
      "type": "Feature",
      "geometry": {
        "coordinates": [
          1.925294975,
          41.4792845
        ],
        "type": "Point"
      },
      "properties": {
        "colors": null,
        "id": "MC2",
        "lines": [
          "R5",
          "R50",
          "R53",
          "R6",
          "R60",
          "R63",
          "S4",
          "S8"
        ],
        "name": "Martorell Central",
        "primary_color": "#888888",
        "stop_code": ""
      }
    },
    {
      "type": "Feature",
      "geometry": {
        "coordinates": [
          1.925294975,
          41.4792845
        ],
        "type": "Point"
      },
      "properties": {
        "colors": null,
        "id": "MC1",
        "lines": [
          "R5",
          "R50",
          "R6",
          "R60",
          "S4",
          "S8"
        ],
        "name": "Martorell Central",
        "primary_color": "#888888",
        "stop_code": ""
      }
    },
    {
      "type": "Feature",
      "geometry": {
        "coordinates": [
          1.918677519,
          41.48396936
        ],
        "type": "Point"
      },
      "properties": {
        "colors": null,
        "id": "ME1",
        "lines": [
          "R5",
          "R6",
          "S4",
          "S8"
        ],
        "name": "Martorell Enllaç",
        "primary_color": "#888888",
        "stop_code": ""
      }
    },
    {
      "type": "Feature",
      "geometry": {
        "coordinates": [
          1.918677519,
          41.48396936
        ],
        "type": "Point"
      },
      "properties": {
        "colors": null,
        "id": "ME2",
        "lines": [
          "R5",
          "R53",
          "R6",
          "R63",
          "S4",
          "S8"
        ],
        "name": "Martorell Enllaç",
        "primary_color": "#888888",
        "stop_code": ""
      }
    },
    {
      "type": "Feature",
      "geometry": {
        "coordinates": [
          1.938956855,
          41.4758714
        ],
        "type": "Point"
      },
      "properties": {
        "colors": null,
        "id": "MV1",
        "lines": [
          "S4",
          "S8"
        ],
        "name": "Martorell Vila",
        "primary_color": "#888888",
        "stop_code": ""
      }
    },
    {
      "type": "Feature",
      "geometry": {
        "coordinates": [
          1.938956855,
          41.4758714
        ],
        "type": "Point"
      },
      "properties": {
        "colors": null,
        "id": "MV2",
        "lines": [
          "R53",
          "R63",
          "S4",
          "S8"
        ],
        "name": "Martorell Vila",
        "primary_color": "#888888",
        "stop_code": ""
      }
    },
    {
      "type": "Feature",
      "geometry": {
        "coordinates": [
          1.812625072,
          41.502884
        ],
        "type": "Point"
      },
      "properties": {
        "colors": null,
        "id": "MQ1",
        "lines": [
          "R6",
          "R60"
        ],
        "name": "Masquefa",
        "primary_color": "#888888",
        "stop_code": ""
      }
    },
    {
      "type": "Feature",
      "geometry": {
        "coordinates": [
          1.812625072,
          41.502884
        ],
        "type": "Point"
      },
      "properties": {
        "colors": null,
        "id": "MQ2",
        "lines": [
          "R6",
          "R60",
          "R63"
        ],
        "name": "Masquefa",
        "primary_color": "#888888",
        "stop_code": ""
      }
    },
    {
      "type": "Feature",
      "geometry": {
        "coordinates": [
          2.061380927,
          41.46936873
        ],
        "type": "Point"
      },
      "properties": {
        "colors": null,
        "id": "MS1",
        "lines": [
          "S1"
        ],
        "name": "Mira-Sol",
        "primary_color": "#888888",
        "stop_code": ""
      }
    },
    {
      "type": "Feature",
      "geometry": {
        "coordinates": [
          2.061380927,
          41.46936873
        ],
        "type": "Point"
      },
      "properties": {
        "colors": null,
        "id": "MS2",
        "lines": [
          "S1"
        ],
        "name": "Mira-Sol",
        "primary_color": "#888888",
        "stop_code": ""
      }
    },
    {
      "type": "Feature",
      "geometry": {
        "coordinates": [
          2.035276936,
          41.35751473
        ],
        "type": "Point"
      },
      "properties": {
        "colors": null,
        "id": "ML1",
        "lines": [
          "L8",
          "R5",
          "R6",
          "S3",
          "S4",
          "S8",
          "S9"
        ],
        "name": "Molí Nou - Ciutat Cooperativa",
        "primary_color": "#888888",
        "stop_code": ""
      }
    },
    {
      "type": "Feature",
      "geometry": {
        "coordinates": [
          2.035276936,
          41.35751473
        ],
        "type": "Point"
      },
      "properties": {
        "colors": null,
        "id": "ML2",
        "lines": [
          "L8",
          "R5",
          "R53",
          "R6",
          "R63",
          "S3",
          "S4",
          "S8",
          "S9"
        ],
        "name": "Molí Nou - Ciutat Cooperativa",
        "primary_color": "#888888",
        "stop_code": ""
      }
    },
    {
      "type": "Feature",
      "geometry": {
        "coordinates": [
          1.84919403,
          41.6103596
        ],
        "type": "Point"
      },
      "properties": {
        "colors": null,
        "id": "MO3",
        "lines": [
          "R5"
        ],
        "name": "Monistrol de Montserrat",
        "primary_color": "#888888",
        "stop_code": ""
      }
    },
    {
      "type": "Feature",
      "geometry": {
        "coordinates": [
          1.84919403,
          41.6103596
        ],
        "type": "Point"
      },
      "properties": {
        "colors": null,
        "id": "MO2",
        "lines": [
          "R5",
          "R50",
          "R53"
        ],
        "name": "Monistrol de Montserrat",
        "primary_color": "#888888",
        "stop_code": ""
      }
    },
    {
      "type": "Feature",
      "geometry": {
        "coordinates": [
          1.84919403,
          41.6103596
        ],
        "type": "Point"
      },
      "properties": {
        "colors": null,
        "id": "MO1",
        "lines": [
          "R5",
          "R50"
        ],
        "name": "Monistrol de Montserrat",
        "primary_color": "#888888",
        "stop_code": ""
      }
    },
    {
      "type": "Feature",
      "geometry": {
        "coordinates": [
          1.84919403,
          41.6103596
        ],
        "type": "Point"
      },
      "properties": {
        "colors": null,
        "id": "MO4",
        "lines": [
          "MM"
        ],
        "name": "Monistrol de Montserrat",
        "primary_color": "#888888",
        "stop_code": ""
      }
    },
    {
      "type": "Feature",
      "geometry": {
        "coordinates": [
          1.843723316,
          41.61562791
        ],
        "type": "Point"
      },
      "properties": {
        "colors": null,
        "id": "MP1",
        "lines": [
          "MM"
        ],
        "name": "Monistrol-Vila",
        "primary_color": "#888888",
        "stop_code": ""
      }
    },
    {
      "type": "Feature",
      "geometry": {
        "coordinates": [
          1.843723316,
          41.61562791
        ],
        "type": "Point"
      },
      "properties": {
        "colors": null,
        "id": "MP2",
        "lines": [
          "MM"
        ],
        "name": "Monistrol-Vila",
        "primary_color": "#888888",
        "stop_code": ""
      }
    },
    {
      "type": "Feature",
      "geometry": {
        "coordinates": [
          1.836497527,
          41.59225373
        ],
        "type": "Point"
      },
      "properties": {
        "colors": null,
        "id": "MM1",
        "lines": [
          "MM"
        ],
        "name": "Montserrat",
        "primary_color": "#888888",
        "stop_code": ""
      }
    },
    {
      "type": "Feature",
      "geometry": {
        "coordinates": [
          1.836497527,
          41.59225373
        ],
        "type": "Point"
      },
      "properties": {
        "colors": null,
        "id": "MM2",
        "lines": [
          "MM"
        ],
        "name": "Montserrat",
        "primary_color": "#888888",
        "stop_code": ""
      }
    },
    {
      "type": "Feature",
      "geometry": {
        "coordinates": [
          1.853361605,
          41.59119812
        ],
        "type": "Point"
      },
      "properties": {
        "colors": null,
        "id": "AE1",
        "lines": [
          "R5",
          "R53"
        ],
        "name": "Montserrat-Aeri",
        "primary_color": "#888888",
        "stop_code": ""
      }
    },
    {
      "type": "Feature",
      "geometry": {
        "coordinates": [
          2.142346041,
          41.39852644
        ],
        "type": "Point"
      },
      "properties": {
        "colors": null,
        "id": "MN1",
        "lines": [
          "L6",
          "S1",
          "S2"
        ],
        "name": "Muntaner",
        "primary_color": "#888888",
        "stop_code": ""
      }
    },
    {
      "type": "Feature",
      "geometry": {
        "coordinates": [
          2.142346041,
          41.39852644
        ],
        "type": "Point"
      },
      "properties": {
        "colors": null,
        "id": "MN2",
        "lines": [
          "L6",
          "S1",
          "S2"
        ],
        "name": "Muntaner",
        "primary_color": "#888888",
        "stop_code": ""
      }
    },
    {
      "type": "Feature",
      "geometry": {
        "coordinates": [
          1.888618922,
          41.54105908
        ],
        "type": "Point"
      },
      "properties": {
        "colors": null,
        "id": "OL1",
        "lines": [
          "R5",
          "R50"
        ],
        "name": "Olesa de Montserrat",
        "primary_color": "#888888",
        "stop_code": ""
      }
    },
    {
      "type": "Feature",
      "geometry": {
        "coordinates": [
          1.888618922,
          41.54105908
        ],
        "type": "Point"
      },
      "properties": {
        "colors": null,
        "id": "OL4",
        "lines": [
          "S4"
        ],
        "name": "Olesa de Montserrat",
        "primary_color": "#888888",
        "stop_code": ""
      }
    },
    {
      "type": "Feature",
      "geometry": {
        "coordinates": [
          1.888618922,
          41.54105908
        ],
        "type": "Point"
      },
      "properties": {
        "colors": null,
        "id": "OL2",
        "lines": [
          "R5",
          "R50",
          "R53",
          "S4"
        ],
        "name": "Olesa de Montserrat",
        "primary_color": "#888888",
        "stop_code": ""
      }
    },
    {
      "type": "Feature",
      "geometry": {
        "coordinates": [
          0.892435,
          42.147002
        ],
        "type": "Point"
      },
      "properties": {
        "colors": null,
        "id": "PT1",
        "lines": [
          "RL2"
        ],
        "name": "Palau de Noguera",
        "primary_color": "#888888",
        "stop_code": ""
      }
    },
    {
      "type": "Feature",
      "geometry": {
        "coordinates": [
          1.995677605,
          41.42078685
        ],
        "type": "Point"
      },
      "properties": {
        "colors": null,
        "id": "PA1",
        "lines": [
          "R5",
          "R50",
          "R6",
          "S4",
          "S8"
        ],
        "name": "Pallejà",
        "primary_color": "#888888",
        "stop_code": ""
      }
    },
    {
      "type": "Feature",
      "geometry": {
        "coordinates": [
          1.995677605,
          41.42078685
        ],
        "type": "Point"
      },
      "properties": {
        "colors": null,
        "id": "PA2",
        "lines": [
          "R5",
          "R50",
          "R53",
          "R6",
          "R63",
          "S4",
          "S8"
        ],
        "name": "Pallejà",
        "primary_color": "#888888",
        "stop_code": ""
      }
    },
    {
      "type": "Feature",
      "geometry": {
        "coordinates": [
          2.111181541,
          41.40921616
        ],
        "type": "Point"
      },
      "properties": {
        "colors": null,
        "id": "PF2",
        "lines": [
          "S1",
          "S2"
        ],
        "name": "Peu del Funicular",
        "primary_color": "#888888",
        "stop_code": ""
      }
    },
    {
      "type": "Feature",
      "geometry": {
        "coordinates": [
          2.111181541,
          41.40921616
        ],
        "type": "Point"
      },
      "properties": {
        "colors": null,
        "id": "PF1",
        "lines": [
          "S1",
          "S2"
        ],
        "name": "Peu del Funicular",
        "primary_color": "#888888",
        "stop_code": ""
      }
    },
    {
      "type": "Feature",
      "geometry": {
        "coordinates": [
          1.75450443,
          41.52591339
        ],
        "type": "Point"
      },
      "properties": {
        "colors": null,
        "id": "PI2",
        "lines": [
          "R6",
          "R60",
          "R63"
        ],
        "name": "Piera",
        "primary_color": "#888888",
        "stop_code": ""
      }
    },
    {
      "type": "Feature",
      "geometry": {
        "coordinates": [
          1.75450443,
          41.52591339
        ],
        "type": "Point"
      },
      "properties": {
        "colors": null,
        "id": "PI1",
        "lines": [
          "R6",
          "R60"
        ],
        "name": "Piera",
        "primary_color": "#888888",
        "stop_code": ""
      }
    },
    {
      "type": "Feature",
      "geometry": {
        "coordinates": [
          2.146754722,
          41.4016938
        ],
        "type": "Point"
      },
      "properties": {
        "colors": null,
        "id": "PM1",
        "lines": [
          "L7"
        ],
        "name": "Pl. Molina",
        "primary_color": "#888888",
        "stop_code": ""
      }
    },
    {
      "type": "Feature",
      "geometry": {
        "coordinates": [
          2.146754722,
          41.4016938
        ],
        "type": "Point"
      },
      "properties": {
        "colors": null,
        "id": "PM2",
        "lines": [
          "L7"
        ],
        "name": "Pl. Molina",
        "primary_color": "#888888",
        "stop_code": ""
      }
    },
    {
      "type": "Feature",
      "geometry": {
        "coordinates": [
          0.652806,
          41.622808
        ],
        "type": "Point"
      },
      "properties": {
        "colors": null,
        "id": "PG1",
        "lines": [
          "RL1",
          "RL2"
        ],
        "name": "Polígon industrial del Segre",
        "primary_color": "#888888",
        "stop_code": ""
      }
    },
    {
      "type": "Feature",
      "geometry": {
        "coordinates": [
          2.158030869,
          41.39281434
        ],
        "type": "Point"
      },
      "properties": {
        "colors": null,
        "id": "PR2",
        "lines": [
          "L6",
          "L7",
          "S1",
          "S2"
        ],
        "name": "Provença",
        "primary_color": "#888888",
        "stop_code": ""
      }
    },
    {
      "type": "Feature",
      "geometry": {
        "coordinates": [
          2.158030869,
          41.39281434
        ],
        "type": "Point"
      },
      "properties": {
        "colors": null,
        "id": "PR1",
        "lines": [
          "L6",
          "L7",
          "S1",
          "S2"
        ],
        "name": "Provença",
        "primary_color": "#888888",
        "stop_code": ""
      }
    },
    {
      "type": "Feature",
      "geometry": {
        "coordinates": [
          2.142759094,
          41.40351065
        ],
        "type": "Point"
      },
      "properties": {
        "colors": null,
        "id": "PD2",
        "lines": [
          "L7"
        ],
        "name": "Pàdua",
        "primary_color": "#888888",
        "stop_code": ""
      }
    },
    {
      "type": "Feature",
      "geometry": {
        "coordinates": [
          2.142759094,
          41.40351065
        ],
        "type": "Point"
      },
      "properties": {
        "colors": null,
        "id": "PD1",
        "lines": [
          "L7"
        ],
        "name": "Pàdua",
        "primary_color": "#888888",
        "stop_code": ""
      }
    },
    {
      "type": "Feature",
      "geometry": {
        "coordinates": [
          2.001715183,
          41.40629238
        ],
        "type": "Point"
      },
      "properties": {
        "colors": null,
        "id": "QC3",
        "lines": [
          "R5",
          "R6",
          "S4",
          "S8"
        ],
        "name": "Quatre Camins",
        "primary_color": "#888888",
        "stop_code": ""
      }
    },
    {
      "type": "Feature",
      "geometry": {
        "coordinates": [
          2.001715183,
          41.40629238
        ],
        "type": "Point"
      },
      "properties": {
        "colors": null,
        "id": "QC4",
        "lines": [
          "R5",
          "R53",
          "R6",
          "R63",
          "S4",
          "S8",
          "S9"
        ],
        "name": "Quatre Camins",
        "primary_color": "#888888",
        "stop_code": ""
      }
    },
    {
      "type": "Feature",
      "geometry": {
        "coordinates": [
          2.118932325,
          41.39874599
        ],
        "type": "Point"
      },
      "properties": {
        "colors": null,
        "id": "RE1",
        "lines": [
          "L12"
        ],
        "name": "Reina Elisenda",
        "primary_color": "#888888",
        "stop_code": ""
      }
    },
    {
      "type": "Feature",
      "geometry": {
        "coordinates": [
          2.031357969,
          41.48628798
        ],
        "type": "Point"
      },
      "properties": {
        "colors": null,
        "id": "RB1",
        "lines": [
          "S1"
        ],
        "name": "Rubí Centre",
        "primary_color": "#888888",
        "stop_code": ""
      }
    },
    {
      "type": "Feature",
      "geometry": {
        "coordinates": [
          2.031357969,
          41.48628798
        ],
        "type": "Point"
      },
      "properties": {
        "colors": null,
        "id": "RB2",
        "lines": [
          "S1"
        ],
        "name": "Rubí Centre",
        "primary_color": "#888888",
        "stop_code": ""
      }
    },
    {
      "type": "Feature",
      "geometry": {
        "coordinates": [
          2.096657,
          41.561225
        ],
        "type": "Point"
      },
      "properties": {
        "colors": null,
        "id": "NO2",
        "lines": [
          "S2"
        ],
        "name": "Sabadell Nord",
        "primary_color": "#888888",
        "stop_code": ""
      }
    },
    {
      "type": "Feature",
      "geometry": {
        "coordinates": [
          2.096657,
          41.561225
        ],
        "type": "Point"
      },
      "properties": {
        "colors": null,
        "id": "NO1",
        "lines": [
          "S2"
        ],
        "name": "Sabadell Nord",
        "primary_color": "#888888",
        "stop_code": ""
      }
    },
    {
      "type": "Feature",
      "geometry": {
        "coordinates": [
          2.089499,
          41.571291
        ],
        "type": "Point"
      },
      "properties": {
        "colors": null,
        "id": "PN2",
        "lines": [
          "S2"
        ],
        "name": "Sabadell Parc del Nord",
        "primary_color": "#888888",
        "stop_code": ""
      }
    },
    {
      "type": "Feature",
      "geometry": {
        "coordinates": [
          2.089499,
          41.571291
        ],
        "type": "Point"
      },
      "properties": {
        "colors": null,
        "id": "PN1",
        "lines": [
          "S2"
        ],
        "name": "Sabadell Parc del Nord",
        "primary_color": "#888888",
        "stop_code": ""
      }
    },
    {
      "type": "Feature",
      "geometry": {
        "coordinates": [
          2.1088815,
          41.5474198
        ],
        "type": "Point"
      },
      "properties": {
        "colors": null,
        "id": "PJ2",
        "lines": [
          "S2"
        ],
        "name": "Sabadell Plaça Major",
        "primary_color": "#888888",
        "stop_code": ""
      }
    },
    {
      "type": "Feature",
      "geometry": {
        "coordinates": [
          2.1088815,
          41.5474198
        ],
        "type": "Point"
      },
      "properties": {
        "colors": null,
        "id": "PJ1",
        "lines": [
          "S2"
        ],
        "name": "Sabadell Plaça Major",
        "primary_color": "#888888",
        "stop_code": ""
      }
    },
    {
      "type": "Feature",
      "geometry": {
        "coordinates": [
          0.940463,
          42.206835
        ],
        "type": "Point"
      },
      "properties": {
        "colors": null,
        "id": "SD1",
        "lines": [
          "RL2"
        ],
        "name": "Salàs de Pallars",
        "primary_color": "#888888",
        "stop_code": ""
      }
    },
    {
      "type": "Feature",
      "geometry": {
        "coordinates": [
          1.973673502,
          41.44648001
        ],
        "type": "Point"
      },
      "properties": {
        "colors": null,
        "id": "SA1",
        "lines": [
          "R5",
          "R50",
          "R6",
          "R60",
          "S4",
          "S8"
        ],
        "name": "Sant Andreu de la Barca",
        "primary_color": "#888888",
        "stop_code": ""
      }
    },
    {
      "type": "Feature",
      "geometry": {
        "coordinates": [
          1.973673502,
          41.44648001
        ],
        "type": "Point"
      },
      "properties": {
        "colors": null,
        "id": "SA2",
        "lines": [
          "R5",
          "R50",
          "R53",
          "R6",
          "R60",
          "R63",
          "S4",
          "S8"
        ],
        "name": "Sant Andreu de la Barca",
        "primary_color": "#888888",
        "stop_code": ""
      }
    },
    {
      "type": "Feature",
      "geometry": {
        "coordinates": [
          2.042855988,
          41.34856143
        ],
        "type": "Point"
      },
      "properties": {
        "colors": null,
        "id": "BO1",
        "lines": [
          "L8",
          "R5",
          "R50",
          "R6",
          "R60",
          "S3",
          "S4",
          "S8",
          "S9"
        ],
        "name": "Sant Boi",
        "primary_color": "#888888",
        "stop_code": ""
      }
    },
    {
      "type": "Feature",
      "geometry": {
        "coordinates": [
          2.042855988,
          41.34856143
        ],
        "type": "Point"
      },
      "properties": {
        "colors": null,
        "id": "BO2",
        "lines": [
          "L8",
          "R5",
          "R50",
          "R53",
          "R6",
          "R60",
          "R63",
          "S3",
          "S4",
          "S8",
          "S9"
        ],
        "name": "Sant Boi",
        "primary_color": "#888888",
        "stop_code": ""
      }
    },
    {
      "type": "Feature",
      "geometry": {
        "coordinates": [
          2.078203288,
          41.46791038
        ],
        "type": "Point"
      },
      "properties": {
        "colors": null,
        "id": "SC2",
        "lines": [
          "S1",
          "S2"
        ],
        "name": "Sant Cugat Centre",
        "primary_color": "#888888",
        "stop_code": ""
      }
    },
    {
      "type": "Feature",
      "geometry": {
        "coordinates": [
          2.078203288,
          41.46791038
        ],
        "type": "Point"
      },
      "properties": {
        "colors": null,
        "id": "SC1",
        "lines": [
          "S1",
          "S2"
        ],
        "name": "Sant Cugat Centre",
        "primary_color": "#888888",
        "stop_code": ""
      }
    },
    {
      "type": "Feature",
      "geometry": {
        "coordinates": [
          1.8724438,
          41.49767605
        ],
        "type": "Point"
      },
      "properties": {
        "colors": null,
        "id": "SE1",
        "lines": [
          "R6",
          "R60"
        ],
        "name": "Sant Esteve Sesrovires",
        "primary_color": "#888888",
        "stop_code": ""
      }
    },
    {
      "type": "Feature",
      "geometry": {
        "coordinates": [
          1.8724438,
          41.49767605
        ],
        "type": "Point"
      },
      "properties": {
        "colors": null,
        "id": "SE2",
        "lines": [
          "R6",
          "R60",
          "R63"
        ],
        "name": "Sant Esteve Sesrovires",
        "primary_color": "#888888",
        "stop_code": ""
      }
    },
    {
      "type": "Feature",
      "geometry": {
        "coordinates": [
          2.147133783,
          41.40106608
        ],
        "type": "Point"
      },
      "properties": {
        "colors": null,
        "id": "SG1",
        "lines": [
          "L6",
          "S1",
          "S2"
        ],
        "name": "Sant Gervasi",
        "primary_color": "#888888",
        "stop_code": ""
      }
    },
    {
      "type": "Feature",
      "geometry": {
        "coordinates": [
          2.147133783,
          41.40106608
        ],
        "type": "Point"
      },
      "properties": {
        "colors": null,
        "id": "SG2",
        "lines": [
          "L6",
          "S1",
          "S2"
        ],
        "name": "Sant Gervasi",
        "primary_color": "#888888",
        "stop_code": ""
      }
    },
    {
      "type": "Feature",
      "geometry": {
        "coordinates": [
          2.076498641,
          41.49015388
        ],
        "type": "Point"
      },
      "properties": {
        "colors": null,
        "id": "SJ1",
        "lines": [
          "S2"
        ],
        "name": "Sant Joan",
        "primary_color": "#888888",
        "stop_code": ""
      }
    },
    {
      "type": "Feature",
      "geometry": {
        "coordinates": [
          2.076498641,
          41.49015388
        ],
        "type": "Point"
      },
      "properties": {
        "colors": null,
        "id": "SJ2",
        "lines": [
          "S2"
        ],
        "name": "Sant Joan",
        "primary_color": "#888888",
        "stop_code": ""
      }
    },
    {
      "type": "Feature",
      "geometry": {
        "coordinates": [
          2.10991665,
          41.36070098
        ],
        "type": "Point"
      },
      "properties": {
        "colors": null,
        "id": "SP1",
        "lines": [
          "L8",
          "R5",
          "R50",
          "R6",
          "R60",
          "S3",
          "S4",
          "S8",
          "S9"
        ],
        "name": "Sant Josep",
        "primary_color": "#888888",
        "stop_code": ""
      }
    },
    {
      "type": "Feature",
      "geometry": {
        "coordinates": [
          2.10991665,
          41.36070098
        ],
        "type": "Point"
      },
      "properties": {
        "colors": null,
        "id": "SP2",
        "lines": [
          "L8",
          "R5",
          "R50",
          "R53",
          "R6",
          "R60",
          "R63",
          "S3",
          "S4",
          "S8",
          "S9"
        ],
        "name": "Sant Josep",
        "primary_color": "#888888",
        "stop_code": ""
      }
    },
    {
      "type": "Feature",
      "geometry": {
        "coordinates": [
          2.088722533,
          41.52999155
        ],
        "type": "Point"
      },
      "properties": {
        "colors": null,
        "id": "SQ2",
        "lines": [
          "S2"
        ],
        "name": "Sant Quirze",
        "primary_color": "#888888",
        "stop_code": ""
      }
    },
    {
      "type": "Feature",
      "geometry": {
        "coordinates": [
          2.088722533,
          41.52999155
        ],
        "type": "Point"
      },
      "properties": {
        "colors": null,
        "id": "SQ1",
        "lines": [
          "S2"
        ],
        "name": "Sant Quirze",
        "primary_color": "#888888",
        "stop_code": ""
      }
    },
    {
      "type": "Feature",
      "geometry": {
        "coordinates": [
          2.012398952,
          41.38810839
        ],
        "type": "Point"
      },
      "properties": {
        "colors": null,
        "id": "VH3",
        "lines": [
          "S8"
        ],
        "name": "Sant Vicenç dels Horts",
        "primary_color": "#888888",
        "stop_code": ""
      }
    },
    {
      "type": "Feature",
      "geometry": {
        "coordinates": [
          2.012398952,
          41.38810839
        ],
        "type": "Point"
      },
      "properties": {
        "colors": null,
        "id": "VH1",
        "lines": [
          "R5",
          "R50",
          "R6",
          "R60",
          "S3",
          "S4",
          "S8",
          "S9"
        ],
        "name": "Sant Vicenç dels Horts",
        "primary_color": "#888888",
        "stop_code": ""
      }
    },
    {
      "type": "Feature",
      "geometry": {
        "coordinates": [
          2.012398952,
          41.38810839
        ],
        "type": "Point"
      },
      "properties": {
        "colors": null,
        "id": "VH2",
        "lines": [
          "R5",
          "R50",
          "R53",
          "R6",
          "R60",
          "R63",
          "S3",
          "S4",
          "S8",
          "S9"
        ],
        "name": "Sant Vicenç dels Horts",
        "primary_color": "#888888",
        "stop_code": ""
      }
    },
    {
      "type": "Feature",
      "geometry": {
        "coordinates": [
          1.8596058,
          41.66791016
        ],
        "type": "Point"
      },
      "properties": {
        "colors": null,
        "id": "SV4",
        "lines": [
          "R5"
        ],
        "name": "Sant Vicenç-Castellgalí",
        "primary_color": "#888888",
        "stop_code": ""
      }
    },
    {
      "type": "Feature",
      "geometry": {
        "coordinates": [
          1.8596058,
          41.66791016
        ],
        "type": "Point"
      },
      "properties": {
        "colors": null,
        "id": "SV1",
        "lines": [
          "R5",
          "R50"
        ],
        "name": "Sant Vicenç-Castellgalí",
        "primary_color": "#888888",
        "stop_code": ""
      }
    },
    {
      "type": "Feature",
      "geometry": {
        "coordinates": [
          1.8596058,
          41.66791016
        ],
        "type": "Point"
      },
      "properties": {
        "colors": null,
        "id": "SV2",
        "lines": [
          "R5",
          "R50",
          "R53"
        ],
        "name": "Sant Vicenç-Castellgalí",
        "primary_color": "#888888",
        "stop_code": ""
      }
    },
    {
      "type": "Feature",
      "geometry": {
        "coordinates": [
          2.023520241,
          41.37064766
        ],
        "type": "Point"
      },
      "properties": {
        "colors": null,
        "id": "CL1",
        "lines": [
          "R6",
          "R60",
          "S3",
          "S4",
          "S8",
          "S9"
        ],
        "name": "Santa Coloma de Cervelló",
        "primary_color": "#888888",
        "stop_code": ""
      }
    },
    {
      "type": "Feature",
      "geometry": {
        "coordinates": [
          2.023520241,
          41.37064766
        ],
        "type": "Point"
      },
      "properties": {
        "colors": null,
        "id": "CL2",
        "lines": [
          "R53",
          "R6",
          "R60",
          "R63",
          "S3",
          "S4",
          "S8",
          "S9"
        ],
        "name": "Santa Coloma de Cervelló",
        "primary_color": "#888888",
        "stop_code": ""
      }
    },
    {
      "type": "Feature",
      "geometry": {
        "coordinates": [
          0.852312,
          41.93156
        ],
        "type": "Point"
      },
      "properties": {
        "colors": null,
        "id": "SN1",
        "lines": [
          "RL2"
        ],
        "name": "Santa Linya",
        "primary_color": "#888888",
        "stop_code": ""
      }
    },
    {
      "type": "Feature",
      "geometry": {
        "coordinates": [
          2.125574875,
          41.39849938
        ],
        "type": "Point"
      },
      "properties": {
        "colors": null,
        "id": "SR1",
        "lines": [
          "L6",
          "S1",
          "S2"
        ],
        "name": "Sarrià",
        "primary_color": "#888888",
        "stop_code": ""
      }
    },
    {
      "type": "Feature",
      "geometry": {
        "coordinates": [
          2.125574875,
          41.39849938
        ],
        "type": "Point"
      },
      "properties": {
        "colors": null,
        "id": "SR4",
        "lines": [
          "L12"
        ],
        "name": "Sarrià",
        "primary_color": "#888888",
        "stop_code": ""
      }
    },
    {
      "type": "Feature",
      "geometry": {
        "coordinates": [
          2.125574875,
          41.39849938
        ],
        "type": "Point"
      },
      "properties": {
        "colors": null,
        "id": "SR2",
        "lines": [
          "L6",
          "S1",
          "S2"
        ],
        "name": "Sarrià",
        "primary_color": "#888888",
        "stop_code": ""
      }
    },
    {
      "type": "Feature",
      "geometry": {
        "coordinates": [
          0.832571,
          41.866379
        ],
        "type": "Point"
      },
      "properties": {
        "colors": null,
        "id": "SM1",
        "lines": [
          "RL2"
        ],
        "name": "St. Llorenç de Montgai",
        "primary_color": "#888888",
        "stop_code": ""
      }
    },
    {
      "type": "Feature",
      "geometry": {
        "coordinates": [
          2.015487,
          41.5701675
        ],
        "type": "Point"
      },
      "properties": {
        "colors": null,
        "id": "EN2",
        "lines": [
          "S1"
        ],
        "name": "Terrassa  Estació del nord",
        "primary_color": "#888888",
        "stop_code": ""
      }
    },
    {
      "type": "Feature",
      "geometry": {
        "coordinates": [
          2.015487,
          41.5701675
        ],
        "type": "Point"
      },
      "properties": {
        "colors": null,
        "id": "EN1",
        "lines": [
          "S1"
        ],
        "name": "Terrassa  Estació del nord",
        "primary_color": "#888888",
        "stop_code": ""
      }
    },
    {
      "type": "Feature",
      "geometry": {
        "coordinates": [
          2.007525272,
          41.55974631
        ],
        "type": "Point"
      },
      "properties": {
        "colors": null,
        "id": "TR2",
        "lines": [
          "S1"
        ],
        "name": "Terrassa - Rambla",
        "primary_color": "#888888",
        "stop_code": ""
      }
    },
    {
      "type": "Feature",
      "geometry": {
        "coordinates": [
          2.007525272,
          41.55974631
        ],
        "type": "Point"
      },
      "properties": {
        "colors": null,
        "id": "TR1",
        "lines": [
          "S1"
        ],
        "name": "Terrassa - Rambla",
        "primary_color": "#888888",
        "stop_code": ""
      }
    },
    {
      "type": "Feature",
      "geometry": {
        "coordinates": [
          2.0134592,
          41.5801339
        ],
        "type": "Point"
      },
      "properties": {
        "colors": null,
        "id": "NA1",
        "lines": [
          "S1"
        ],
        "name": "Terrassa Nacions Unides",
        "primary_color": "#888888",
        "stop_code": ""
      }
    },
    {
      "type": "Feature",
      "geometry": {
        "coordinates": [
          2.0134592,
          41.5801339
        ],
        "type": "Point"
      },
      "properties": {
        "colors": null,
        "id": "NA2",
        "lines": [
          "S1"
        ],
        "name": "Terrassa Nacions Unides",
        "primary_color": "#888888",
        "stop_code": ""
      }
    },
    {
      "type": "Feature",
      "geometry": {
        "coordinates": [
          0.891057,
          42.167348
        ],
        "type": "Point"
      },
      "properties": {
        "colors": null,
        "id": "TP1",
        "lines": [
          "RL2"
        ],
        "name": "Tremp",
        "primary_color": "#888888",
        "stop_code": ""
      }
    },
    {
      "type": "Feature",
      "geometry": {
        "coordinates": [
          0.764899,
          41.717644
        ],
        "type": "Point"
      },
      "properties": {
        "colors": null,
        "id": "RM1",
        "lines": [
          "RL1",
          "RL2"
        ],
        "name": "Térmens",
        "primary_color": "#888888",
        "stop_code": ""
      }
    },
    {
      "type": "Feature",
      "geometry": {
        "coordinates": [
          2.102510441,
          41.50285282
        ],
        "type": "Point"
      },
      "properties": {
        "colors": null,
        "id": "UN1",
        "lines": [
          "S2"
        ],
        "name": "Universitat Autònoma",
        "primary_color": "#888888",
        "stop_code": ""
      }
    },
    {
      "type": "Feature",
      "geometry": {
        "coordinates": [
          2.102510441,
          41.50285282
        ],
        "type": "Point"
      },
      "properties": {
        "colors": null,
        "id": "UN2",
        "lines": [
          "S2"
        ],
        "name": "Universitat Autònoma",
        "primary_color": "#888888",
        "stop_code": ""
      }
    },
    {
      "type": "Feature",
      "geometry": {
        "coordinates": [
          1.709010719,
          41.52025979
        ],
        "type": "Point"
      },
      "properties": {
        "colors": null,
        "id": "VA1",
        "lines": [
          "R6"
        ],
        "name": "Vallbona d'Anoia",
        "primary_color": "#888888",
        "stop_code": ""
      }
    },
    {
      "type": "Feature",
      "geometry": {
        "coordinates": [
          1.709010719,
          41.52025979
        ],
        "type": "Point"
      },
      "properties": {
        "colors": null,
        "id": "VA2",
        "lines": [
          "R6",
          "R60",
          "R63"
        ],
        "name": "Vallbona d'Anoia",
        "primary_color": "#888888",
        "stop_code": ""
      }
    },
    {
      "type": "Feature",
      "geometry": {
        "coordinates": [
          2.06831203,
          41.45784156
        ],
        "type": "Point"
      },
      "properties": {
        "colors": null,
        "id": "VD1",
        "lines": [
          "S1",
          "S2"
        ],
        "name": "Valldoreix",
        "primary_color": "#888888",
        "stop_code": ""
      }
    },
    {
      "type": "Feature",
      "geometry": {
        "coordinates": [
          2.06831203,
          41.45784156
        ],
        "type": "Point"
      },
      "properties": {
        "colors": null,
        "id": "VD2",
        "lines": [
          "S1",
          "S2"
        ],
        "name": "Valldoreix",
        "primary_color": "#888888",
        "stop_code": ""
      }
    },
    {
      "type": "Feature",
      "geometry": {
        "coordinates": [
          0.805247,
          41.755094
        ],
        "type": "Point"
      },
      "properties": {
        "colors": null,
        "id": "VF1",
        "lines": [
          "RL1",
          "RL2"
        ],
        "name": "Vallfogona de Balaguer",
        "primary_color": "#888888",
        "stop_code": ""
      }
    },
    {
      "type": "Feature",
      "geometry": {
        "coordinates": [
          2.0190489,
          41.5633063
        ],
        "type": "Point"
      },
      "properties": {
        "colors": null,
        "id": "VP2",
        "lines": [
          "S1"
        ],
        "name": "Vallparadís Universitat",
        "primary_color": "#888888",
        "stop_code": ""
      }
    },
    {
      "type": "Feature",
      "geometry": {
        "coordinates": [
          2.0190489,
          41.5633063
        ],
        "type": "Point"
      },
      "properties": {
        "colors": null,
        "id": "VP1",
        "lines": [
          "S1"
        ],
        "name": "Vallparadís Universitat",
        "primary_color": "#888888",
        "stop_code": ""
      }
    },
    {
      "type": "Feature",
      "geometry": {
        "coordinates": [
          2.111263,
          41.409328
        ],
        "type": "Point"
      },
      "properties": {
        "colors": null,
        "id": "VR1",
        "lines": [
          "FV"
        ],
        "name": "Vallvidrera Inferior",
        "primary_color": "#888888",
        "stop_code": ""
      }
    },
    {
      "type": "Feature",
      "geometry": {
        "coordinates": [
          2.1058163381683,
          41.414111713828
        ],
        "type": "Point"
      },
      "properties": {
        "colors": null,
        "id": "VS1",
        "lines": [
          "FV"
        ],
        "name": "Vallvidrera Superior",
        "primary_color": "#888888",
        "stop_code": ""
      }
    },
    {
      "type": "Feature",
      "geometry": {
        "coordinates": [
          0.727903,
          41.687347
        ],
        "type": "Point"
      },
      "properties": {
        "colors": null,
        "id": "VB1",
        "lines": [
          "RL1",
          "RL2"
        ],
        "name": "Vilanova de la Barca",
        "primary_color": "#888888",
        "stop_code": ""
      }
    },
    {
      "type": "Feature",
      "geometry": {
        "coordinates": [
          0.830401,
          41.91207
        ],
        "type": "Point"
      },
      "properties": {
        "colors": null,
        "id": "LS1",
        "lines": [
          "RL2"
        ],
        "name": "Vilanova de la Sal",
        "primary_color": "#888888",
        "stop_code": ""
      }
    },
    {
      "type": "Feature",
      "geometry": {
        "coordinates": [
          1.642009216,
          41.57331472
        ],
        "type": "Point"
      },
      "properties": {
        "colors": null,
        "id": "VN1",
        "lines": [
          "R6",
          "R60"
        ],
        "name": "Vilanova del Camí",
        "primary_color": "#888888",
        "stop_code": ""
      }
    },
    {
      "type": "Feature",
      "geometry": {
        "coordinates": [
          1.642009216,
          41.57331472
        ],
        "type": "Point"
      },
      "properties": {
        "colors": null,
        "id": "VN2",
        "lines": [
          "R6",
          "R60",
          "R63"
        ],
        "name": "Vilanova del Camí",
        "primary_color": "#888888",
        "stop_code": ""
      }
    },
    {
      "type": "Feature",
      "geometry": {
        "coordinates": [
          2.072928,
          41.481248
        ],
        "type": "Point"
      },
      "properties": {
        "colors": null,
        "id": "VO2",
        "lines": [
          "S2"
        ],
        "name": "Volpelleres",
        "primary_color": "#888888",
        "stop_code": ""
      }
    },
    {
      "type": "Feature",
      "geometry": {
        "coordinates": [
          2.072928,
          41.481248
        ],
        "type": "Point"
      },
      "properties": {
        "colors": null,
        "id": "VO1",
        "lines": [
          "S2"
        ],
        "name": "Volpelleres",
        "primary_color": "#888888",
        "stop_code": ""
      }
    },
    {
      "type": "Feature",
      "geometry": {
        "coordinates": [
          0.851596,
          42.006741
        ],
        "type": "Point"
      },
      "properties": {
        "colors": null,
        "id": "AR1",
        "lines": [
          "RL2"
        ],
        "name": "Àger",
        "primary_color": "#888888",
        "stop_code": ""
      }
    }
  ],
  "type": "FeatureCollection"
}