{
  "type": "FeatureCollection",
  "features": [
    {
      "type": "Feature",
      "id": "78505",
      "properties": {
        "id": "78505",
        "name": "Aguilar De Segarra",
        "code": null,
        "lines": [
          "RL4"
        ]
      },
      "geometry": {
        "type": "Point",
        "coordinates": [
          1.62372,
          41.738917
        ]
      }
    },
    {
      "type": "Feature",
      "id": "73101",
      "properties": {
        "id": "73101",
        "name": "Alcover",
        "code": null,
        "lines": [
          "R14"
        ]
      },
      "geometry": {
        "type": "Point",
        "coordinates": [
          1.17416002,
          41.2616066
        ]
      }
    },
    {
      "type": "Feature",
      "id": "71502",
      "properties": {
        "id": "71502",
        "name": "Altafulla-Tamarit",
        "code": null,
        "lines": [
          "R14",
          "R15",
          "R16",
          "R17",
          "R2S"
        ]
      },
      "geometry": {
        "type": "Point",
        "coordinates": [
          1.37341488,
          41.1366479
        ]
      }
    },
    {
      "type": "Feature",
      "id": "78407",
      "properties": {
        "id": "78407",
        "name": "Anglesola",
        "code": null,
        "lines": [
          "RL3",
          "RL4"
        ]
      },
      "geometry": {
        "type": "Point",
        "coordinates": [
          1.079192,
          41.646448
        ]
      }
    },
    {
      "type": "Feature",
      "id": "79600",
      "properties": {
        "id": "79600",
        "name": "Arenys De Mar",
        "code": null,
        "lines": [
          "R1",
          "R2N"
        ]
      },
      "geometry": {
        "type": "Point",
        "coordinates": [
          2.54933744,
          41.577699
        ]
      }
    },
    {
      "type": "Feature",
      "id": "71211",
      "properties": {
        "id": "71211",
        "name": "Ascó",
        "code": null,
        "lines": [
          "R15",
          "R2S"
        ]
      },
      "geometry": {
        "type": "Point",
        "coordinates": [
          0.56902524,
          41.1823727
        ]
      }
    },
    {
      "type": "Feature",
      "id": "79404",
      "properties": {
        "id": "79404",
        "name": "Badalona",
        "code": null,
        "lines": [
          "R1",
          "R2N"
        ]
      },
      "geometry": {
        "type": "Point",
        "coordinates": [
          2.24892096,
          41.4458838
        ]
      }
    },
    {
      "type": "Feature",
      "id": "77106",
      "properties": {
        "id": "77106",
        "name": "Balenyà-Els Hostalets",
        "code": null,
        "lines": [
          "R3"
        ]
      },
      "geometry": {
        "type": "Point",
        "coordinates": [
          2.23331523,
          41.8149511
        ]
      }
    },
    {
      "type": "Feature",
      "id": "77107",
      "properties": {
        "id": "77107",
        "name": "Balenyà-Tona-Seva",
        "code": null,
        "lines": [
          "R3"
        ]
      },
      "geometry": {
        "type": "Point",
        "coordinates": [
          2.2474424,
          41.8419076
        ]
      }
    },
    {
      "type": "Feature",
      "id": "78705",
      "properties": {
        "id": "78705",
        "name": "Barberà Del Vallès",
        "code": null,
        "lines": [
          "R4"
        ]
      },
      "geometry": {
        "type": "Point",
        "coordinates": [
          2.11845269,
          41.5136598
        ]
      }
    },
    {
      "type": "Feature",
      "id": "79400",
      "properties": {
        "id": "79400",
        "name": "Barcelona Estació De França",
        "code": null,
        "lines": [
          "R14",
          "R15",
          "R16",
          "R17",
          "R2N",
          "R2S"
        ]
      },
      "geometry": {
        "type": "Point",
        "coordinates": [
          2.18534785,
          41.3844866
        ]
      }
    },
    {
      "type": "Feature",
      "id": "78804",
      "properties": {
        "id": "78804",
        "name": "Barcelona-Arc De Triomf",
        "code": null,
        "lines": [
          "R1",
          "R2N",
          "R4",
          "R7"
        ]
      },
      "geometry": {
        "type": "Point",
        "coordinates": [
          2.18063916,
          41.3919048
        ]
      }
    },
    {
      "type": "Feature",
      "id": "79009",
      "properties": {
        "id": "79009",
        "name": "Barcelona-El Clot",
        "code": null,
        "lines": [
          "R1",
          "R11",
          "R2",
          "R2N"
        ]
      },
      "geometry": {
        "type": "Point",
        "coordinates": [
          2.18719759,
          41.4092979
        ]
      }
    },
    {
      "type": "Feature",
      "id": "78806",
      "properties": {
        "id": "78806",
        "name": "Barcelona-La Sagrera-Meridiana",
        "code": null,
        "lines": [
          "R4",
          "R7"
        ]
      },
      "geometry": {
        "type": "Point",
        "coordinates": [
          2.18711031,
          41.421848
        ]
      }
    },
    {
      "type": "Feature",
      "id": "71802",
      "properties": {
        "id": "71802",
        "name": "Barcelona-Passeig De Gràcia",
        "code": null,
        "lines": [
          "R11",
          "R14",
          "R15",
          "R16",
          "R17",
          "R2",
          "R2N",
          "R2S"
        ]
      },
      "geometry": {
        "type": "Point",
        "coordinates": [
          2.16533862,
          41.3920862
        ]
      }
    },
    {
      "type": "Feature",
      "id": "78805",
      "properties": {
        "id": "78805",
        "name": "Barcelona-Plaça De Catalunya",
        "code": null,
        "lines": [
          "R1",
          "R2N",
          "R4",
          "R7"
        ]
      },
      "geometry": {
        "type": "Point",
        "coordinates": [
          2.16970383,
          41.3879231
        ]
      }
    },
    {
      "type": "Feature",
      "id": "79004",
      "properties": {
        "id": "79004",
        "name": "Barcelona-Sant Andreu",
        "code": null,
        "lines": [
          "R11",
          "R2",
          "R2N"
        ]
      },
      "geometry": {
        "type": "Point",
        "coordinates": [
          2.19319866,
          41.4361251
        ]
      }
    },
    {
      "type": "Feature",
      "id": "71801",
      "properties": {
        "id": "71801",
        "name": "Barcelona-Sants",
        "code": null,
        "lines": [
          "R1",
          "R11",
          "R14",
          "R15",
          "R16",
          "R17",
          "R2",
          "R2N",
          "R2S",
          "R4",
          "R7"
        ]
      },
      "geometry": {
        "type": "Point",
        "coordinates": [
          2.14101688,
          41.3798632
        ]
      }
    },
    {
      "type": "Feature",
      "id": "78402",
      "properties": {
        "id": "78402",
        "name": "Bell-Lloc D'urgell",
        "code": null,
        "lines": [
          "RL3",
          "RL4"
        ]
      },
      "geometry": {
        "type": "Point",
        "coordinates": [
          0.781547,
          41.631619
        ]
      }
    },
    {
      "type": "Feature",
      "id": "78406",
      "properties": {
        "id": "78406",
        "name": "Bellpuig",
        "code": null,
        "lines": [
          "RL3",
          "RL4"
        ]
      },
      "geometry": {
        "type": "Point",
        "coordinates": [
          1.012993,
          41.632545
        ]
      }
    },
    {
      "type": "Feature",
      "id": "71708",
      "properties": {
        "id": "71708",
        "name": "Bellvitge-Gornal",
        "code": null,
        "lines": [
          "R2",
          "R2N",
          "R2S"
        ]
      },
      "geometry": {
        "type": "Point",
        "coordinates": [
          2.1152733,
          41.3549216
        ]
      }
    },
    {
      "type": "Feature",
      "id": "79606",
      "properties": {
        "id": "79606",
        "name": "Blanes",
        "code": null,
        "lines": [
          "R1",
          "R2N"
        ]
      },
      "geometry": {
        "type": "Point",
        "coordinates": [
          2.7692697,
          41.6736157
        ]
      }
    },
    {
      "type": "Feature",
      "id": "79302",
      "properties": {
        "id": "79302",
        "name": "Bordils-Juià",
        "code": null,
        "lines": [
          "R11",
          "R2N",
          "RG1"
        ]
      },
      "geometry": {
        "type": "Point",
        "coordinates": [
          2.91529561,
          42.0370568
        ]
      }
    },
    {
      "type": "Feature",
      "id": "77112",
      "properties": {
        "id": "77112",
        "name": "Borgonyà",
        "code": null,
        "lines": [
          "R3"
        ]
      },
      "geometry": {
        "type": "Point",
        "coordinates": [
          2.24200567,
          42.0646586
        ]
      }
    },
    {
      "type": "Feature",
      "id": "79412",
      "properties": {
        "id": "79412",
        "name": "Cabrera De Mar-Vilassar De Mar",
        "code": null,
        "lines": [
          "R1",
          "R2N"
        ]
      },
      "geometry": {
        "type": "Point",
        "coordinates": [
          2.40162431,
          41.5067718
        ]
      }
    },
    {
      "type": "Feature",
      "id": "78503",
      "properties": {
        "id": "78503",
        "name": "Calaf",
        "code": null,
        "lines": [
          "RL4"
        ]
      },
      "geometry": {
        "type": "Point",
        "coordinates": [
          1.515097,
          41.730334
        ]
      }
    },
    {
      "type": "Feature",
      "id": "71601",
      "properties": {
        "id": "71601",
        "name": "Calafell",
        "code": null,
        "lines": [
          "R2",
          "R2S"
        ]
      },
      "geometry": {
        "type": "Point",
        "coordinates": [
          1.57500937,
          41.1896703
        ]
      }
    },
    {
      "type": "Feature",
      "id": "79502",
      "properties": {
        "id": "79502",
        "name": "Caldes D'estrac",
        "code": null,
        "lines": [
          "R1",
          "R2N"
        ]
      },
      "geometry": {
        "type": "Point",
        "coordinates": [
          2.52598143,
          41.5686082
        ]
      }
    },
    {
      "type": "Feature",
      "id": "79203",
      "properties": {
        "id": "79203",
        "name": "Caldes De Malavella",
        "code": null,
        "lines": [
          "R11",
          "R2N",
          "RG1"
        ]
      },
      "geometry": {
        "type": "Point",
        "coordinates": [
          2.80076692,
          41.84111
        ]
      }
    },
    {
      "type": "Feature",
      "id": "79603",
      "properties": {
        "id": "79603",
        "name": "Calella",
        "code": null,
        "lines": [
          "R1",
          "R2N"
        ]
      },
      "geometry": {
        "type": "Point",
        "coordinates": [
          2.66599517,
          41.6146911
        ]
      }
    },
    {
      "type": "Feature",
      "id": "79305",
      "properties": {
        "id": "79305",
        "name": "Camallera",
        "code": null,
        "lines": [
          "R11",
          "R2N",
          "RG1"
        ]
      },
      "geometry": {
        "type": "Point",
        "coordinates": [
          2.96536522,
          42.1223297
        ]
      }
    },
    {
      "type": "Feature",
      "id": "65403",
      "properties": {
        "id": "65403",
        "name": "Camarles-Deltebre",
        "code": null,
        "lines": [
          "R16"
        ]
      },
      "geometry": {
        "type": "Point",
        "coordinates": [
          0.67176095,
          40.7747633
        ]
      }
    },
    {
      "type": "Feature",
      "id": "65422",
      "properties": {
        "id": "65422",
        "name": "Cambrils",
        "code": null,
        "lines": [
          "R16"
        ]
      },
      "geometry": {
        "type": "Point",
        "coordinates": [
          1.04603752,
          41.0815642
        ]
      }
    },
    {
      "type": "Feature",
      "id": "65401",
      "properties": {
        "id": "65401",
        "name": "Camp-Redó",
        "code": null,
        "lines": [
          "R16"
        ]
      },
      "geometry": {
        "type": "Point",
        "coordinates": [
          0.55584433,
          40.7591556
        ]
      }
    },
    {
      "type": "Feature",
      "id": "77301",
      "properties": {
        "id": "77301",
        "name": "Campdevànol",
        "code": null,
        "lines": [
          "R3"
        ]
      },
      "geometry": {
        "type": "Point",
        "coordinates": [
          2.16575839,
          42.2217131
        ]
      }
    },
    {
      "type": "Feature",
      "id": "79601",
      "properties": {
        "id": "79601",
        "name": "Canet De Mar",
        "code": null,
        "lines": [
          "R1",
          "R2N"
        ]
      },
      "geometry": {
        "type": "Point",
        "coordinates": [
          2.58128887,
          41.5866691
        ]
      }
    },
    {
      "type": "Feature",
      "id": "71302",
      "properties": {
        "id": "71302",
        "name": "Capçanes",
        "code": null,
        "lines": [
          "R15",
          "R2S"
        ]
      },
      "geometry": {
        "type": "Point",
        "coordinates": [
          0.78036099,
          41.1020902
        ]
      }
    },
    {
      "type": "Feature",
      "id": "79101",
      "properties": {
        "id": "79101",
        "name": "Cardedeu",
        "code": null,
        "lines": [
          "R2",
          "R2N"
        ]
      },
      "geometry": {
        "type": "Point",
        "coordinates": [
          2.35626265,
          41.6367012
        ]
      }
    },
    {
      "type": "Feature",
      "id": "71204",
      "properties": {
        "id": "71204",
        "name": "Caspe",
        "code": null,
        "lines": [
          "R15",
          "R2S"
        ]
      },
      "geometry": {
        "type": "Point",
        "coordinates": [
          -0.042701,
          41.239738
        ]
      }
    },
    {
      "type": "Feature",
      "id": "78605",
      "properties": {
        "id": "78605",
        "name": "Castellbell I El Vilar-Monist Montserrat",
        "code": null,
        "lines": [
          "R4"
        ]
      },
      "geometry": {
        "type": "Point",
        "coordinates": [
          1.86882093,
          41.6286826
        ]
      }
    },
    {
      "type": "Feature",
      "id": "72210",
      "properties": {
        "id": "72210",
        "name": "Castellbisbal",
        "code": null,
        "lines": [
          "R4",
          "R8"
        ]
      },
      "geometry": {
        "type": "Point",
        "coordinates": [
          1.96756971,
          41.4734152
        ]
      }
    },
    {
      "type": "Feature",
      "id": "71705",
      "properties": {
        "id": "71705",
        "name": "Castelldefels",
        "code": null,
        "lines": [
          "R2",
          "R2S"
        ]
      },
      "geometry": {
        "type": "Point",
        "coordinates": [
          1.97915126,
          41.2790474
        ]
      }
    },
    {
      "type": "Feature",
      "id": "78405",
      "properties": {
        "id": "78405",
        "name": "Castellnou De Seana",
        "code": null,
        "lines": [
          "RL3",
          "RL4"
        ]
      },
      "geometry": {
        "type": "Point",
        "coordinates": [
          0.967736,
          41.637464
        ]
      }
    },
    {
      "type": "Feature",
      "id": "79301",
      "properties": {
        "id": "79301",
        "name": "Celrà",
        "code": null,
        "lines": [
          "R11",
          "R2N",
          "RG1"
        ]
      },
      "geometry": {
        "type": "Point",
        "coordinates": [
          2.87490587,
          42.0271984
        ]
      }
    },
    {
      "type": "Feature",
      "id": "77105",
      "properties": {
        "id": "77105",
        "name": "Centelles",
        "code": null,
        "lines": [
          "R3"
        ]
      },
      "geometry": {
        "type": "Point",
        "coordinates": [
          2.22263552,
          41.7993947
        ]
      }
    },
    {
      "type": "Feature",
      "id": "79316",
      "properties": {
        "id": "79316",
        "name": "Cerbère",
        "code": null,
        "lines": [
          "R11"
        ]
      },
      "geometry": {
        "type": "Point",
        "coordinates": [
          3.16314935,
          42.441664
        ]
      }
    },
    {
      "type": "Feature",
      "id": "78706",
      "properties": {
        "id": "78706",
        "name": "Cerdanyola Del Vallès",
        "code": null,
        "lines": [
          "R4",
          "R7"
        ]
      },
      "geometry": {
        "type": "Point",
        "coordinates": [
          2.14752164,
          41.4925608
        ]
      }
    },
    {
      "type": "Feature",
      "id": "72503",
      "properties": {
        "id": "72503",
        "name": "Cerdanyola Universitat",
        "code": null,
        "lines": [
          "R7",
          "R8"
        ]
      },
      "geometry": {
        "type": "Point",
        "coordinates": [
          2.1153777,
          41.4969904
        ]
      }
    },
    {
      "type": "Feature",
      "id": "78500",
      "properties": {
        "id": "78500",
        "name": "Cervera",
        "code": null,
        "lines": [
          "RL3",
          "RL4"
        ]
      },
      "geometry": {
        "type": "Point",
        "coordinates": [
          1.274773,
          41.673611
        ]
      }
    },
    {
      "type": "Feature",
      "id": "79314",
      "properties": {
        "id": "79314",
        "name": "Colera",
        "code": null,
        "lines": [
          "R11",
          "R2N",
          "RG1"
        ]
      },
      "geometry": {
        "type": "Point",
        "coordinates": [
          3.15434316,
          42.4068837
        ]
      }
    },
    {
      "type": "Feature",
      "id": "72303",
      "properties": {
        "id": "72303",
        "name": "Cornellà",
        "code": null,
        "lines": [
          "R4",
          "R7"
        ]
      },
      "geometry": {
        "type": "Point",
        "coordinates": [
          2.07054907,
          41.3575214
        ]
      }
    },
    {
      "type": "Feature",
      "id": "71604",
      "properties": {
        "id": "71604",
        "name": "Cubelles",
        "code": null,
        "lines": [
          "R2",
          "R2S"
        ]
      },
      "geometry": {
        "type": "Point",
        "coordinates": [
          1.6759772,
          41.2043246
        ]
      }
    },
    {
      "type": "Feature",
      "id": "71603",
      "properties": {
        "id": "71603",
        "name": "Cunit",
        "code": null,
        "lines": [
          "R2",
          "R2S"
        ]
      },
      "geometry": {
        "type": "Point",
        "coordinates": [
          1.63194242,
          41.1950415
        ]
      }
    },
    {
      "type": "Feature",
      "id": "71305",
      "properties": {
        "id": "71305",
        "name": "Duesaigües-L'argentera",
        "code": null,
        "lines": [
          "R15",
          "R2S"
        ]
      },
      "geometry": {
        "type": "Point",
        "coordinates": [
          0.92087096,
          41.1436928
        ]
      }
    },
    {
      "type": "Feature",
      "id": "79407",
      "properties": {
        "id": "79407",
        "name": "El Masnou",
        "code": null,
        "lines": [
          "R1",
          "R2N"
        ]
      },
      "geometry": {
        "type": "Point",
        "coordinates": [
          2.3103772,
          41.4770363
        ]
      }
    },
    {
      "type": "Feature",
      "id": "72211",
      "properties": {
        "id": "72211",
        "name": "El Papiol",
        "code": null,
        "lines": [
          "R4"
        ]
      },
      "geometry": {
        "type": "Point",
        "coordinates": [
          2.00257792,
          41.4353713
        ]
      }
    },
    {
      "type": "Feature",
      "id": "72400",
      "properties": {
        "id": "72400",
        "name": "El Prat Aeroport",
        "code": null,
        "lines": [
          "R2N"
        ]
      },
      "geometry": {
        "type": "Point",
        "coordinates": [
          2.07340133,
          41.3041813
        ]
      }
    },
    {
      "type": "Feature",
      "id": "71707",
      "properties": {
        "id": "71707",
        "name": "El Prat De Llobregat",
        "code": null,
        "lines": [
          "R2",
          "R2N",
          "R2S"
        ]
      },
      "geometry": {
        "type": "Point",
        "coordinates": [
          2.08934473,
          41.3309401
        ]
      }
    },
    {
      "type": "Feature",
      "id": "72201",
      "properties": {
        "id": "72201",
        "name": "El Vendrell",
        "code": null,
        "lines": [
          "R4"
        ]
      },
      "geometry": {
        "type": "Point",
        "coordinates": [
          1.53790552,
          41.2210057
        ]
      }
    },
    {
      "type": "Feature",
      "id": "72203",
      "properties": {
        "id": "72203",
        "name": "Els Monjos",
        "code": null,
        "lines": [
          "R4"
        ]
      },
      "geometry": {
        "type": "Point",
        "coordinates": [
          1.65988402,
          41.3147135
        ]
      }
    },
    {
      "type": "Feature",
      "id": "71206",
      "properties": {
        "id": "71206",
        "name": "Fabara",
        "code": null,
        "lines": [
          "R15",
          "R2S"
        ]
      },
      "geometry": {
        "type": "Point",
        "coordinates": [
          0.143284,
          41.234405
        ]
      }
    },
    {
      "type": "Feature",
      "id": "78802",
      "properties": {
        "id": "78802",
        "name": "Fabra I Puig",
        "code": null,
        "lines": [
          "R3",
          "R4",
          "R7"
        ]
      },
      "geometry": {
        "type": "Point",
        "coordinates": [
          2.18332907,
          41.4303481
        ]
      }
    },
    {
      "type": "Feature",
      "id": "71208",
      "properties": {
        "id": "71208",
        "name": "Faió-La Pobla De Massaluca",
        "code": null,
        "lines": [
          "R15",
          "R2S"
        ]
      },
      "geometry": {
        "type": "Point",
        "coordinates": [
          0.35110259,
          41.2250555
        ]
      }
    },
    {
      "type": "Feature",
      "id": "77103",
      "properties": {
        "id": "77103",
        "name": "Figaró",
        "code": null,
        "lines": [
          "R3"
        ]
      },
      "geometry": {
        "type": "Point",
        "coordinates": [
          2.27160129,
          41.7213454
        ]
      }
    },
    {
      "type": "Feature",
      "id": "79309",
      "properties": {
        "id": "79309",
        "name": "Figueres",
        "code": null,
        "lines": [
          "R11",
          "R2N",
          "RG1"
        ]
      },
      "geometry": {
        "type": "Point",
        "coordinates": [
          2.96880074,
          42.2651134
        ]
      }
    },
    {
      "type": "Feature",
      "id": "79303",
      "properties": {
        "id": "79303",
        "name": "Flaçà",
        "code": null,
        "lines": [
          "R11",
          "R2N",
          "RG1"
        ]
      },
      "geometry": {
        "type": "Point",
        "coordinates": [
          2.95740315,
          42.047477
        ]
      }
    },
    {
      "type": "Feature",
      "id": "71210",
      "properties": {
        "id": "71210",
        "name": "Flix",
        "code": null,
        "lines": [
          "R15",
          "R2S"
        ]
      },
      "geometry": {
        "type": "Point",
        "coordinates": [
          0.54010012,
          41.2293651
        ]
      }
    },
    {
      "type": "Feature",
      "id": "79205",
      "properties": {
        "id": "79205",
        "name": "Fornells De La Selva",
        "code": null,
        "lines": [
          "R11",
          "R2N",
          "RG1"
        ]
      },
      "geometry": {
        "type": "Point",
        "coordinates": [
          2.80978324,
          41.935043
        ]
      }
    },
    {
      "type": "Feature",
      "id": "71703",
      "properties": {
        "id": "71703",
        "name": "Garraf",
        "code": null,
        "lines": [
          "R2",
          "R2S"
        ]
      },
      "geometry": {
        "type": "Point",
        "coordinates": [
          1.90250383,
          41.2545875
        ]
      }
    },
    {
      "type": "Feature",
      "id": "71706",
      "properties": {
        "id": "71706",
        "name": "Gavà",
        "code": null,
        "lines": [
          "R2",
          "R2S"
        ]
      },
      "geometry": {
        "type": "Point",
        "coordinates": [
          2.01053111,
          41.3034722
        ]
      }
    },
    {
      "type": "Feature",
      "id": "72208",
      "properties": {
        "id": "72208",
        "name": "Gelida",
        "code": null,
        "lines": [
          "R4"
        ]
      },
      "geometry": {
        "type": "Point",
        "coordinates": [
          1.86552988,
          41.4485405
        ]
      }
    },
    {
      "type": "Feature",
      "id": "79300",
      "properties": {
        "id": "79300",
        "name": "Girona",
        "code": null,
        "lines": [
          "R11",
          "R2N",
          "RG1"
        ]
      },
      "geometry": {
        "type": "Point",
        "coordinates": [
          2.81693689,
          41.9793629
        ]
      }
    },
    {
      "type": "Feature",
      "id": "78404",
      "properties": {
        "id": "78404",
        "name": "Golmés",
        "code": null,
        "lines": [
          "RL3",
          "RL4"
        ]
      },
      "geometry": {
        "type": "Point",
        "coordinates": [
          0.930863,
          41.635929
        ]
      }
    },
    {
      "type": "Feature",
      "id": "77006",
      "properties": {
        "id": "77006",
        "name": "Granollers-Canovelles",
        "code": null,
        "lines": [
          "R3"
        ]
      },
      "geometry": {
        "type": "Point",
        "coordinates": [
          2.27686073,
          41.6114637
        ]
      }
    },
    {
      "type": "Feature",
      "id": "79100",
      "properties": {
        "id": "79100",
        "name": "Granollers-Centre",
        "code": null,
        "lines": [
          "R11",
          "R2",
          "R2N",
          "R8"
        ]
      },
      "geometry": {
        "type": "Point",
        "coordinates": [
          2.29126962,
          41.5997447
        ]
      }
    },
    {
      "type": "Feature",
      "id": "79105",
      "properties": {
        "id": "79105",
        "name": "Gualba",
        "code": null,
        "lines": [
          "R11",
          "R2",
          "R2N"
        ]
      },
      "geometry": {
        "type": "Point",
        "coordinates": [
          2.53878373,
          41.7181901
        ]
      }
    },
    {
      "type": "Feature",
      "id": "79107",
      "properties": {
        "id": "79107",
        "name": "Hostalric",
        "code": null,
        "lines": [
          "R11",
          "R2",
          "R2N"
        ]
      },
      "geometry": {
        "type": "Point",
        "coordinates": [
          2.63165011,
          41.747788
        ]
      }
    },
    {
      "type": "Feature",
      "id": "73002",
      "properties": {
        "id": "73002",
        "name": "Juneda",
        "code": null,
        "lines": [
          "R14"
        ]
      },
      "geometry": {
        "type": "Point",
        "coordinates": [
          0.82554185,
          41.5439328
        ]
      }
    },
    {
      "type": "Feature",
      "id": "65402",
      "properties": {
        "id": "65402",
        "name": "L'aldea-Amposta-Tortosa",
        "code": null,
        "lines": [
          "R16"
        ]
      },
      "geometry": {
        "type": "Point",
        "coordinates": [
          0.61430923,
          40.753564
        ]
      }
    },
    {
      "type": "Feature",
      "id": "65405",
      "properties": {
        "id": "65405",
        "name": "L'ametlla De Mar",
        "code": null,
        "lines": [
          "R16"
        ]
      },
      "geometry": {
        "type": "Point",
        "coordinates": [
          0.80045321,
          40.8862
        ]
      }
    },
    {
      "type": "Feature",
      "id": "65404",
      "properties": {
        "id": "65404",
        "name": "L'ampolla-El Perelló-Deltebre",
        "code": null,
        "lines": [
          "R16"
        ]
      },
      "geometry": {
        "type": "Point",
        "coordinates": [
          0.70826336,
          40.8119898
        ]
      }
    },
    {
      "type": "Feature",
      "id": "72202",
      "properties": {
        "id": "72202",
        "name": "L'arboç",
        "code": null,
        "lines": [
          "R4"
        ]
      },
      "geometry": {
        "type": "Point",
        "coordinates": [
          1.60051857,
          41.2734041
        ]
      }
    },
    {
      "type": "Feature",
      "id": "73007",
      "properties": {
        "id": "73007",
        "name": "L'espluga De Francolí",
        "code": null,
        "lines": [
          "R14"
        ]
      },
      "geometry": {
        "type": "Point",
        "coordinates": [
          1.10336094,
          41.4006616
        ]
      }
    },
    {
      "type": "Feature",
      "id": "65420",
      "properties": {
        "id": "65420",
        "name": "L'hospitalet De L'infant",
        "code": null,
        "lines": [
          "R16"
        ]
      },
      "geometry": {
        "type": "Point",
        "coordinates": [
          0.91253887,
          40.99939
        ]
      }
    },
    {
      "type": "Feature",
      "id": "72305",
      "properties": {
        "id": "72305",
        "name": "L'hospitalet De Llobregat",
        "code": null,
        "lines": [
          "R1",
          "R2N",
          "R4",
          "R7"
        ]
      },
      "geometry": {
        "type": "Point",
        "coordinates": [
          2.10091749,
          41.3642038
        ]
      }
    },
    {
      "type": "Feature",
      "id": "77114",
      "properties": {
        "id": "77114",
        "name": "La Farga De Bebié",
        "code": null,
        "lines": [
          "R3"
        ]
      },
      "geometry": {
        "type": "Point",
        "coordinates": [
          2.20393566,
          42.1300729
        ]
      }
    },
    {
      "type": "Feature",
      "id": "73004",
      "properties": {
        "id": "73004",
        "name": "La Floresta",
        "code": null,
        "lines": [
          "R14"
        ]
      },
      "geometry": {
        "type": "Point",
        "coordinates": [
          0.9217547,
          41.5048872
        ]
      }
    },
    {
      "type": "Feature",
      "id": "77102",
      "properties": {
        "id": "77102",
        "name": "La Garriga",
        "code": null,
        "lines": [
          "R3"
        ]
      },
      "geometry": {
        "type": "Point",
        "coordinates": [
          2.28879559,
          41.6846272
        ]
      }
    },
    {
      "type": "Feature",
      "id": "72205",
      "properties": {
        "id": "72205",
        "name": "La Granada",
        "code": null,
        "lines": [
          "R4"
        ]
      },
      "geometry": {
        "type": "Point",
        "coordinates": [
          1.72507893,
          41.3709497
        ]
      }
    },
    {
      "type": "Feature",
      "id": "79011",
      "properties": {
        "id": "79011",
        "name": "La Llagosta",
        "code": null,
        "lines": [
          "R2",
          "R2N"
        ]
      },
      "geometry": {
        "type": "Point",
        "coordinates": [
          2.19973279,
          41.5104566
        ]
      }
    },
    {
      "type": "Feature",
      "id": "77306",
      "properties": {
        "id": "77306",
        "name": "La Molina",
        "code": null,
        "lines": [
          "R3"
        ]
      },
      "geometry": {
        "type": "Point",
        "coordinates": [
          1.95595081,
          42.3446518
        ]
      }
    },
    {
      "type": "Feature",
      "id": "73100",
      "properties": {
        "id": "73100",
        "name": "La Plana-Picamoixons",
        "code": null,
        "lines": [
          "R14",
          "R2S"
        ]
      },
      "geometry": {
        "type": "Point",
        "coordinates": [
          1.19488293,
          41.3061987
        ]
      }
    },
    {
      "type": "Feature",
      "id": "71200",
      "properties": {
        "id": "71200",
        "name": "La Puebla De Híjar",
        "code": null,
        "lines": [
          "R2S"
        ]
      },
      "geometry": {
        "type": "Point",
        "coordinates": [
          -0.438595,
          41.2244
        ]
      }
    },
    {
      "type": "Feature",
      "id": "73010",
      "properties": {
        "id": "73010",
        "name": "La Riba",
        "code": null,
        "lines": [
          "R14"
        ]
      },
      "geometry": {
        "type": "Point",
        "coordinates": [
          1.1813126,
          41.3184926
        ]
      }
    },
    {
      "type": "Feature",
      "id": "73102",
      "properties": {
        "id": "73102",
        "name": "La Selva Del Camp",
        "code": null,
        "lines": [
          "R14"
        ]
      },
      "geometry": {
        "type": "Point",
        "coordinates": [
          1.14396003,
          41.2111544
        ]
      }
    },
    {
      "type": "Feature",
      "id": "77310",
      "properties": {
        "id": "77310",
        "name": "La Tour De Carol",
        "code": null,
        "lines": [
          "R3"
        ]
      },
      "geometry": {
        "type": "Point",
        "coordinates": [
          1.90438312,
          42.4590288
        ]
      }
    },
    {
      "type": "Feature",
      "id": "71108",
      "properties": {
        "id": "71108",
        "name": "La Zaida-Sástago",
        "code": null,
        "lines": [
          "R2S"
        ]
      },
      "geometry": {
        "type": "Point",
        "coordinates": [
          -0.427115,
          41.320542
        ]
      }
    },
    {
      "type": "Feature",
      "id": "72206",
      "properties": {
        "id": "72206",
        "name": "Lavern-Subirats",
        "code": null,
        "lines": [
          "R4"
        ]
      },
      "geometry": {
        "type": "Point",
        "coordinates": [
          1.76817358,
          41.3957338
        ]
      }
    },
    {
      "type": "Feature",
      "id": "73003",
      "properties": {
        "id": "73003",
        "name": "Les Borges Blanques",
        "code": null,
        "lines": [
          "R14"
        ]
      },
      "geometry": {
        "type": "Point",
        "coordinates": [
          0.87791022,
          41.5213973
        ]
      }
    },
    {
      "type": "Feature",
      "id": "71307",
      "properties": {
        "id": "71307",
        "name": "Les Borges Del Camp",
        "code": null,
        "lines": [
          "R15",
          "R2S"
        ]
      },
      "geometry": {
        "type": "Point",
        "coordinates": [
          1.0221323,
          41.1665064
        ]
      }
    },
    {
      "type": "Feature",
      "id": "77100",
      "properties": {
        "id": "77100",
        "name": "Les Franqueses Del Vallès",
        "code": null,
        "lines": [
          "R3"
        ]
      },
      "geometry": {
        "type": "Point",
        "coordinates": [
          2.29516461,
          41.6297885
        ]
      }
    },
    {
      "type": "Feature",
      "id": "79109",
      "properties": {
        "id": "79109",
        "name": "Les Franqueses-Granollers Nord",
        "code": null,
        "lines": [
          "R2",
          "R2N"
        ]
      },
      "geometry": {
        "type": "Point",
        "coordinates": [
          2.2944318,
          41.6172549
        ]
      }
    },
    {
      "type": "Feature",
      "id": "79312",
      "properties": {
        "id": "79312",
        "name": "Llançà",
        "code": null,
        "lines": [
          "R11",
          "R2N",
          "RG1"
        ]
      },
      "geometry": {
        "type": "Point",
        "coordinates": [
          3.1489746,
          42.3666194
        ]
      }
    },
    {
      "type": "Feature",
      "id": "78400",
      "properties": {
        "id": "78400",
        "name": "Lleida-Pirineus",
        "code": null,
        "lines": [
          "R14",
          "RL3",
          "RL4"
        ]
      },
      "geometry": {
        "type": "Point",
        "coordinates": [
          0.63365328,
          41.62013
        ]
      }
    },
    {
      "type": "Feature",
      "id": "79102",
      "properties": {
        "id": "79102",
        "name": "Llinars Del Vallès",
        "code": null,
        "lines": [
          "R2",
          "R2N"
        ]
      },
      "geometry": {
        "type": "Point",
        "coordinates": [
          2.40445769,
          41.6380367
        ]
      }
    },
    {
      "type": "Feature",
      "id": "79605",
      "properties": {
        "id": "79605",
        "name": "Malgrat De Mar",
        "code": null,
        "lines": [
          "R1",
          "R2N"
        ]
      },
      "geometry": {
        "type": "Point",
        "coordinates": [
          2.74127903,
          41.641602
        ]
      }
    },
    {
      "type": "Feature",
      "id": "77110",
      "properties": {
        "id": "77110",
        "name": "Manlleu",
        "code": null,
        "lines": [
          "R3"
        ]
      },
      "geometry": {
        "type": "Point",
        "coordinates": [
          2.26929589,
          41.9998601
        ]
      }
    },
    {
      "type": "Feature",
      "id": "78600",
      "properties": {
        "id": "78600",
        "name": "Manresa",
        "code": null,
        "lines": [
          "R4",
          "RL4"
        ]
      },
      "geometry": {
        "type": "Point",
        "coordinates": [
          1.82648564,
          41.7203921
        ]
      }
    },
    {
      "type": "Feature",
      "id": "72209",
      "properties": {
        "id": "72209",
        "name": "Martorell-Central",
        "code": null,
        "lines": [
          "R4",
          "R8"
        ]
      },
      "geometry": {
        "type": "Point",
        "coordinates": [
          1.92533467,
          41.4792866
        ]
      }
    },
    {
      "type": "Feature",
      "id": "71303",
      "properties": {
        "id": "71303",
        "name": "Marçà-Falset",
        "code": null,
        "lines": [
          "R15",
          "R2S"
        ]
      },
      "geometry": {
        "type": "Point",
        "coordinates": [
          0.81041774,
          41.1309421
        ]
      }
    },
    {
      "type": "Feature",
      "id": "79500",
      "properties": {
        "id": "79500",
        "name": "Mataró",
        "code": null,
        "lines": [
          "R1",
          "R2N"
        ]
      },
      "geometry": {
        "type": "Point",
        "coordinates": [
          2.44553025,
          41.5333852
        ]
      }
    },
    {
      "type": "Feature",
      "id": "79200",
      "properties": {
        "id": "79200",
        "name": "Maçanet-Massanes",
        "code": null,
        "lines": [
          "R1",
          "R11",
          "R2",
          "R2N",
          "RG1"
        ]
      },
      "geometry": {
        "type": "Point",
        "coordinates": [
          2.67385865,
          41.7724212
        ]
      }
    },
    {
      "type": "Feature",
      "id": "72300",
      "properties": {
        "id": "72300",
        "name": "Molins De Rei",
        "code": null,
        "lines": [
          "R4",
          "R7"
        ]
      },
      "geometry": {
        "type": "Point",
        "coordinates": [
          2.02077275,
          41.4098958
        ]
      }
    },
    {
      "type": "Feature",
      "id": "78403",
      "properties": {
        "id": "78403",
        "name": "Mollerussa",
        "code": null,
        "lines": [
          "RL3",
          "RL4"
        ]
      },
      "geometry": {
        "type": "Point",
        "coordinates": [
          0.896775,
          41.631779
        ]
      }
    },
    {
      "type": "Feature",
      "id": "79006",
      "properties": {
        "id": "79006",
        "name": "Mollet-Sant Fost",
        "code": null,
        "lines": [
          "R2",
          "R2N",
          "R8"
        ]
      },
      "geometry": {
        "type": "Point",
        "coordinates": [
          2.21766516,
          41.5335634
        ]
      }
    },
    {
      "type": "Feature",
      "id": "77004",
      "properties": {
        "id": "77004",
        "name": "Mollet-Santa Rosa",
        "code": null,
        "lines": [
          "R3"
        ]
      },
      "geometry": {
        "type": "Point",
        "coordinates": [
          2.20616865,
          41.5366617
        ]
      }
    },
    {
      "type": "Feature",
      "id": "73008",
      "properties": {
        "id": "73008",
        "name": "Montblanc",
        "code": null,
        "lines": [
          "R14"
        ]
      },
      "geometry": {
        "type": "Point",
        "coordinates": [
          1.16554869,
          41.3766254
        ]
      }
    },
    {
      "type": "Feature",
      "id": "79005",
      "properties": {
        "id": "79005",
        "name": "Montcada I Reixac",
        "code": null,
        "lines": [
          "R2",
          "R2N"
        ]
      },
      "geometry": {
        "type": "Point",
        "coordinates": [
          2.1880892,
          41.4842254
        ]
      }
    },
    {
      "type": "Feature",
      "id": "78708",
      "properties": {
        "id": "78708",
        "name": "Montcada I Reixac-Manresa",
        "code": null,
        "lines": [
          "R4",
          "R7"
        ]
      },
      "geometry": {
        "type": "Point",
        "coordinates": [
          2.1854042,
          41.4839402
        ]
      }
    },
    {
      "type": "Feature",
      "id": "78707",
      "properties": {
        "id": "78707",
        "name": "Montcada I Reixac-Santa María",
        "code": null,
        "lines": [
          "R4",
          "R7"
        ]
      },
      "geometry": {
        "type": "Point",
        "coordinates": [
          2.16698683,
          41.4811409
        ]
      }
    },
    {
      "type": "Feature",
      "id": "78800",
      "properties": {
        "id": "78800",
        "name": "Montcada-Bifurcació",
        "code": null,
        "lines": [
          "R4",
          "R7"
        ]
      },
      "geometry": {
        "type": "Point",
        "coordinates": [
          2.18001578,
          41.4698402
        ]
      }
    },
    {
      "type": "Feature",
      "id": "77002",
      "properties": {
        "id": "77002",
        "name": "Montcada-Ripollet",
        "code": null,
        "lines": [
          "R3"
        ]
      },
      "geometry": {
        "type": "Point",
        "coordinates": [
          2.18192841,
          41.4968022
        ]
      }
    },
    {
      "type": "Feature",
      "id": "79405",
      "properties": {
        "id": "79405",
        "name": "Montgat",
        "code": null,
        "lines": [
          "R1",
          "R2N"
        ]
      },
      "geometry": {
        "type": "Point",
        "coordinates": [
          2.2721551,
          41.4630211
        ]
      }
    },
    {
      "type": "Feature",
      "id": "79406",
      "properties": {
        "id": "79406",
        "name": "Montgat-Nord",
        "code": null,
        "lines": [
          "R1",
          "R2N"
        ]
      },
      "geometry": {
        "type": "Point",
        "coordinates": [
          2.28669661,
          41.468786
        ]
      }
    },
    {
      "type": "Feature",
      "id": "79007",
      "properties": {
        "id": "79007",
        "name": "Montmeló",
        "code": null,
        "lines": [
          "R2",
          "R2N",
          "R8"
        ]
      },
      "geometry": {
        "type": "Point",
        "coordinates": [
          2.24544407,
          41.5496523
        ]
      }
    },
    {
      "type": "Feature",
      "id": "71300",
      "properties": {
        "id": "71300",
        "name": "Móra La Nova",
        "code": null,
        "lines": [
          "R15",
          "R2S"
        ]
      },
      "geometry": {
        "type": "Point",
        "coordinates": [
          0.65321819,
          41.1065823
        ]
      }
    },
    {
      "type": "Feature",
      "id": "71207",
      "properties": {
        "id": "71207",
        "name": "Nonaspe",
        "code": null,
        "lines": [
          "R15",
          "R2S"
        ]
      },
      "geometry": {
        "type": "Point",
        "coordinates": [
          0.242472,
          41.213788
        ]
      }
    },
    {
      "type": "Feature",
      "id": "76003",
      "properties": {
        "id": "76003",
        "name": "Nulles-Bràfim",
        "code": null,
        "lines": [
          "R2S"
        ]
      },
      "geometry": {
        "type": "Point",
        "coordinates": [
          1.29750259,
          41.2503192
        ]
      }
    },
    {
      "type": "Feature",
      "id": "79408",
      "properties": {
        "id": "79408",
        "name": "Ocata",
        "code": null,
        "lines": [
          "R1",
          "R2N"
        ]
      },
      "geometry": {
        "type": "Point",
        "coordinates": [
          2.31953267,
          41.4790211
        ]
      }
    },
    {
      "type": "Feature",
      "id": "79103",
      "properties": {
        "id": "79103",
        "name": "Palautordera",
        "code": null,
        "lines": [
          "R2",
          "R2N"
        ]
      },
      "geometry": {
        "type": "Point",
        "coordinates": [
          2.45421488,
          41.6719522
        ]
      }
    },
    {
      "type": "Feature",
      "id": "77005",
      "properties": {
        "id": "77005",
        "name": "Parets Del Vallès",
        "code": null,
        "lines": [
          "R3"
        ]
      },
      "geometry": {
        "type": "Point",
        "coordinates": [
          2.22600409,
          41.556269
        ]
      }
    },
    {
      "type": "Feature",
      "id": "79604",
      "properties": {
        "id": "79604",
        "name": "Pineda De Mar",
        "code": null,
        "lines": [
          "R1",
          "R2N"
        ]
      },
      "geometry": {
        "type": "Point",
        "coordinates": [
          2.69355042,
          41.6224449
        ]
      }
    },
    {
      "type": "Feature",
      "id": "77304",
      "properties": {
        "id": "77304",
        "name": "Planoles",
        "code": null,
        "lines": [
          "R3"
        ]
      },
      "geometry": {
        "type": "Point",
        "coordinates": [
          2.09973152,
          42.3144689
        ]
      }
    },
    {
      "type": "Feature",
      "id": "71704",
      "properties": {
        "id": "71704",
        "name": "Platja De Castelldefels",
        "code": null,
        "lines": [
          "R2",
          "R2S"
        ]
      },
      "geometry": {
        "type": "Point",
        "coordinates": [
          1.95713579,
          41.2669823
        ]
      }
    },
    {
      "type": "Feature",
      "id": "79315",
      "properties": {
        "id": "79315",
        "name": "Portbou",
        "code": null,
        "lines": [
          "R11",
          "R2N",
          "RG1"
        ]
      },
      "geometry": {
        "type": "Point",
        "coordinates": [
          3.15801841,
          42.4245908
        ]
      }
    },
    {
      "type": "Feature",
      "id": "71304",
      "properties": {
        "id": "71304",
        "name": "Pradell",
        "code": null,
        "lines": [
          "R15",
          "R2S"
        ]
      },
      "geometry": {
        "type": "Point",
        "coordinates": [
          0.85865032,
          41.1333595
        ]
      }
    },
    {
      "type": "Feature",
      "id": "79409",
      "properties": {
        "id": "79409",
        "name": "Premià De Mar",
        "code": null,
        "lines": [
          "R1",
          "R2N"
        ]
      },
      "geometry": {
        "type": "Point",
        "coordinates": [
          2.35485608,
          41.4877522
        ]
      }
    },
    {
      "type": "Feature",
      "id": "77309",
      "properties": {
        "id": "77309",
        "name": "Puigcerdà",
        "code": null,
        "lines": [
          "R3"
        ]
      },
      "geometry": {
        "type": "Point",
        "coordinates": [
          1.92458355,
          42.4296256
        ]
      }
    },
    {
      "type": "Feature",
      "id": "73001",
      "properties": {
        "id": "73001",
        "name": "Puigverd De Lleida-Artesa",
        "code": null,
        "lines": [
          "R14"
        ]
      },
      "geometry": {
        "type": "Point",
        "coordinates": [
          0.73342706,
          41.5537015
        ]
      }
    },
    {
      "type": "Feature",
      "id": "71105",
      "properties": {
        "id": "71105",
        "name": "Quinto",
        "code": null,
        "lines": [
          "R2S"
        ]
      },
      "geometry": {
        "type": "Point",
        "coordinates": [
          -0.490673,
          41.419528
        ]
      }
    },
    {
      "type": "Feature",
      "id": "78506",
      "properties": {
        "id": "78506",
        "name": "Rajadell",
        "code": null,
        "lines": [
          "R4",
          "RL4"
        ]
      },
      "geometry": {
        "type": "Point",
        "coordinates": [
          1.696275,
          41.733159
        ]
      }
    },
    {
      "type": "Feature",
      "id": "71400",
      "properties": {
        "id": "71400",
        "name": "Reus",
        "code": null,
        "lines": [
          "R14",
          "R15",
          "R2S"
        ]
      },
      "geometry": {
        "type": "Point",
        "coordinates": [
          1.10008978,
          41.1605229
        ]
      }
    },
    {
      "type": "Feature",
      "id": "71209",
      "properties": {
        "id": "71209",
        "name": "Riba-Roja D'ebre",
        "code": null,
        "lines": [
          "R15",
          "R2S"
        ]
      },
      "geometry": {
        "type": "Point",
        "coordinates": [
          0.48103178,
          41.2485594
        ]
      }
    },
    {
      "type": "Feature",
      "id": "77303",
      "properties": {
        "id": "77303",
        "name": "Ribes De Freser",
        "code": null,
        "lines": [
          "R3"
        ]
      },
      "geometry": {
        "type": "Point",
        "coordinates": [
          2.16619947,
          42.3002126
        ]
      }
    },
    {
      "type": "Feature",
      "id": "79106",
      "properties": {
        "id": "79106",
        "name": "Riells I Viabrea-Breda",
        "code": null,
        "lines": [
          "R11",
          "R2",
          "R2N"
        ]
      },
      "geometry": {
        "type": "Point",
        "coordinates": [
          2.56889584,
          41.7263582
        ]
      }
    },
    {
      "type": "Feature",
      "id": "77200",
      "properties": {
        "id": "77200",
        "name": "Ripoll",
        "code": null,
        "lines": [
          "R3"
        ]
      },
      "geometry": {
        "type": "Point",
        "coordinates": [
          2.19584128,
          42.1961284
        ]
      }
    },
    {
      "type": "Feature",
      "id": "71306",
      "properties": {
        "id": "71306",
        "name": "Riudecanyes-Botarell",
        "code": null,
        "lines": [
          "R15",
          "R2S"
        ]
      },
      "geometry": {
        "type": "Point",
        "coordinates": [
          0.97574775,
          41.1400577
        ]
      }
    },
    {
      "type": "Feature",
      "id": "79204",
      "properties": {
        "id": "79204",
        "name": "Riudellots",
        "code": null,
        "lines": [
          "R11",
          "R2N",
          "RG1"
        ]
      },
      "geometry": {
        "type": "Point",
        "coordinates": [
          2.81157037,
          41.896297
        ]
      }
    },
    {
      "type": "Feature",
      "id": "72101",
      "properties": {
        "id": "72101",
        "name": "Roda De Mar",
        "code": null,
        "lines": [
          "R2S"
        ]
      },
      "geometry": {
        "type": "Point",
        "coordinates": [
          1.45520767,
          41.1864204
        ]
      }
    },
    {
      "type": "Feature",
      "id": "72501",
      "properties": {
        "id": "72501",
        "name": "Rubí Can Vallhonrat",
        "code": null,
        "lines": [
          "R8"
        ]
      },
      "geometry": {
        "type": "Point",
        "coordinates": [
          2.03707926,
          41.4751763
        ]
      }
    },
    {
      "type": "Feature",
      "id": "78704",
      "properties": {
        "id": "78704",
        "name": "Sabadell Centre",
        "code": null,
        "lines": [
          "R4"
        ]
      },
      "geometry": {
        "type": "Point",
        "coordinates": [
          2.11560767,
          41.5464197
        ]
      }
    },
    {
      "type": "Feature",
      "id": "78709",
      "properties": {
        "id": "78709",
        "name": "Sabadell Nord",
        "code": null,
        "lines": [
          "R4"
        ]
      },
      "geometry": {
        "type": "Point",
        "coordinates": [
          2.09622844,
          41.5619773
        ]
      }
    },
    {
      "type": "Feature",
      "id": "78703",
      "properties": {
        "id": "78703",
        "name": "Sabadell Sud",
        "code": null,
        "lines": [
          "R4"
        ]
      },
      "geometry": {
        "type": "Point",
        "coordinates": [
          2.10539311,
          41.5287076
        ]
      }
    },
    {
      "type": "Feature",
      "id": "76001",
      "properties": {
        "id": "76001",
        "name": "Salomó",
        "code": null,
        "lines": [
          "R2S"
        ]
      },
      "geometry": {
        "type": "Point",
        "coordinates": [
          1.37662504,
          41.2234416
        ]
      }
    },
    {
      "type": "Feature",
      "id": "65411",
      "properties": {
        "id": "65411",
        "name": "Salou-Port Aventura",
        "code": null,
        "lines": [
          "R17",
          "RT2"
        ]
      },
      "geometry": {
        "type": "Point",
        "coordinates": [
          1.14605195,
          41.0884798
        ]
      }
    },
    {
      "type": "Feature",
      "id": "71201",
      "properties": {
        "id": "71201",
        "name": "Samper",
        "code": null,
        "lines": [
          "R2S"
        ]
      },
      "geometry": {
        "type": "Point",
        "coordinates": [
          -0.368761,
          41.182183
        ]
      }
    },
    {
      "type": "Feature",
      "id": "79403",
      "properties": {
        "id": "79403",
        "name": "Sant Adrià De Besòs",
        "code": null,
        "lines": [
          "R1",
          "R2N"
        ]
      },
      "geometry": {
        "type": "Point",
        "coordinates": [
          2.23048178,
          41.4244316
        ]
      }
    },
    {
      "type": "Feature",
      "id": "79501",
      "properties": {
        "id": "79501",
        "name": "Sant Andreu De Llavaneres",
        "code": null,
        "lines": [
          "R1",
          "R2N"
        ]
      },
      "geometry": {
        "type": "Point",
        "coordinates": [
          2.49826463,
          41.5555467
        ]
      }
    },
    {
      "type": "Feature",
      "id": "79104",
      "properties": {
        "id": "79104",
        "name": "Sant Celoni",
        "code": null,
        "lines": [
          "R11",
          "R2",
          "R2N"
        ]
      },
      "geometry": {
        "type": "Point",
        "coordinates": [
          2.49072799,
          41.6857928
        ]
      }
    },
    {
      "type": "Feature",
      "id": "72502",
      "properties": {
        "id": "72502",
        "name": "Sant Cugat Coll Favà",
        "code": null,
        "lines": [
          "R8"
        ]
      },
      "geometry": {
        "type": "Point",
        "coordinates": [
          2.07967922,
          41.4810907
        ]
      }
    },
    {
      "type": "Feature",
      "id": "72301",
      "properties": {
        "id": "72301",
        "name": "Sant Feliu De Llobregat",
        "code": null,
        "lines": [
          "R4",
          "R7"
        ]
      },
      "geometry": {
        "type": "Point",
        "coordinates": [
          2.0479197,
          41.3830018
        ]
      }
    },
    {
      "type": "Feature",
      "id": "78501",
      "properties": {
        "id": "78501",
        "name": "Sant Guim De Freixenet",
        "code": null,
        "lines": [
          "RL4"
        ]
      },
      "geometry": {
        "type": "Point",
        "coordinates": [
          1.42053,
          41.655924
        ]
      }
    },
    {
      "type": "Feature",
      "id": "72302",
      "properties": {
        "id": "72302",
        "name": "Sant Joan Despí",
        "code": null,
        "lines": [
          "R4",
          "R7"
        ]
      },
      "geometry": {
        "type": "Point",
        "coordinates": [
          2.06020835,
          41.3685805
        ]
      }
    },
    {
      "type": "Feature",
      "id": "79304",
      "properties": {
        "id": "79304",
        "name": "Sant Jordi Desvalls",
        "code": null,
        "lines": [
          "R11",
          "R2N",
          "RG1"
        ]
      },
      "geometry": {
        "type": "Point",
        "coordinates": [
          2.96447664,
          42.0683023
        ]
      }
    },
    {
      "type": "Feature",
      "id": "77104",
      "properties": {
        "id": "77104",
        "name": "Sant Martí De Centelles",
        "code": null,
        "lines": [
          "R3"
        ]
      },
      "geometry": {
        "type": "Point",
        "coordinates": [
          2.24890462,
          41.7605736
        ]
      }
    },
    {
      "type": "Feature",
      "id": "78502",
      "properties": {
        "id": "78502",
        "name": "Sant Martí Sesgueioles",
        "code": null,
        "lines": [
          "RL4"
        ]
      },
      "geometry": {
        "type": "Point",
        "coordinates": [
          1.486204,
          41.701217
        ]
      }
    },
    {
      "type": "Feature",
      "id": "79306",
      "properties": {
        "id": "79306",
        "name": "Sant Miquel De Fluvià",
        "code": null,
        "lines": [
          "R11",
          "R2N",
          "RG1"
        ]
      },
      "geometry": {
        "type": "Point",
        "coordinates": [
          2.98959828,
          42.1721019
        ]
      }
    },
    {
      "type": "Feature",
      "id": "78610",
      "properties": {
        "id": "78610",
        "name": "Sant Miquel De Gonteres",
        "code": null,
        "lines": [
          "R4"
        ]
      },
      "geometry": {
        "type": "Point",
        "coordinates": [
          1.97428484,
          41.5688661
        ]
      }
    },
    {
      "type": "Feature",
      "id": "79602",
      "properties": {
        "id": "79602",
        "name": "Sant Pol De Mar",
        "code": null,
        "lines": [
          "R1",
          "R2N"
        ]
      },
      "geometry": {
        "type": "Point",
        "coordinates": [
          2.62459756,
          41.6017549
        ]
      }
    },
    {
      "type": "Feature",
      "id": "77113",
      "properties": {
        "id": "77113",
        "name": "Sant Quirze De Besora-Montesquiu",
        "code": null,
        "lines": [
          "R3"
        ]
      },
      "geometry": {
        "type": "Point",
        "coordinates": [
          2.21773349,
          42.1048488
        ]
      }
    },
    {
      "type": "Feature",
      "id": "72207",
      "properties": {
        "id": "72207",
        "name": "Sant Sadurní D'anoia",
        "code": null,
        "lines": [
          "R4"
        ]
      },
      "geometry": {
        "type": "Point",
        "coordinates": [
          1.79468769,
          41.4205181
        ]
      }
    },
    {
      "type": "Feature",
      "id": "71600",
      "properties": {
        "id": "71600",
        "name": "Sant Vicenç De Calders",
        "code": null,
        "lines": [
          "R14",
          "R15",
          "R16",
          "R17",
          "R2",
          "R2S",
          "R4"
        ]
      },
      "geometry": {
        "type": "Point",
        "coordinates": [
          1.52480358,
          41.1862102
        ]
      }
    },
    {
      "type": "Feature",
      "id": "78604",
      "properties": {
        "id": "78604",
        "name": "Sant Vicenç De Castellet",
        "code": null,
        "lines": [
          "R4"
        ]
      },
      "geometry": {
        "type": "Point",
        "coordinates": [
          1.86264304,
          41.6688309
        ]
      }
    },
    {
      "type": "Feature",
      "id": "77003",
      "properties": {
        "id": "77003",
        "name": "Santa Perpètua De Mogoda La Florida",
        "code": null,
        "lines": [
          "R3"
        ]
      },
      "geometry": {
        "type": "Point",
        "coordinates": [
          2.18623384,
          41.5262041
        ]
      }
    },
    {
      "type": "Feature",
      "id": "72508",
      "properties": {
        "id": "72508",
        "name": "Santa Perpètua De Mogoda-Riera De Caldes",
        "code": null,
        "lines": [
          "R8"
        ]
      },
      "geometry": {
        "type": "Point",
        "coordinates": [
          2.18633867,
          41.5262297
        ]
      }
    },
    {
      "type": "Feature",
      "id": "79608",
      "properties": {
        "id": "79608",
        "name": "Santa Susana",
        "code": null,
        "lines": [
          "R1",
          "R2N"
        ]
      },
      "geometry": {
        "type": "Point",
        "coordinates": [
          2.7159698,
          41.6300971
        ]
      }
    },
    {
      "type": "Feature",
      "id": "78504",
      "properties": {
        "id": "78504",
        "name": "Seguers-Sant Pere Sallavinera",
        "code": null,
        "lines": [
          "RL4"
        ]
      },
      "geometry": {
        "type": "Point",
        "coordinates": [
          1.574167,
          41.747991
        ]
      }
    },
    {
      "type": "Feature",
      "id": "71602",
      "properties": {
        "id": "71602",
        "name": "Segur De Calafell",
        "code": null,
        "lines": [
          "R2",
          "R2S"
        ]
      },
      "geometry": {
        "type": "Point",
        "coordinates": [
          1.60643599,
          41.1925787
        ]
      }
    },
    {
      "type": "Feature",
      "id": "79202",
      "properties": {
        "id": "79202",
        "name": "Sils",
        "code": null,
        "lines": [
          "R1",
          "R11",
          "R2N",
          "RG1"
        ]
      },
      "geometry": {
        "type": "Point",
        "coordinates": [
          2.74500729,
          41.8075996
        ]
      }
    },
    {
      "type": "Feature",
      "id": "71701",
      "properties": {
        "id": "71701",
        "name": "Sitges",
        "code": null,
        "lines": [
          "R2",
          "R2S"
        ]
      },
      "geometry": {
        "type": "Point",
        "coordinates": [
          1.80969184,
          41.2391315
        ]
      }
    },
    {
      "type": "Feature",
      "id": "71500",
      "properties": {
        "id": "71500",
        "name": "Tarragona",
        "code": null,
        "lines": [
          "R14",
          "R15",
          "R16",
          "R17",
          "R2S",
          "RT2"
        ]
      },
      "geometry": {
        "type": "Point",
        "coordinates": [
          1.25322776,
          41.1115636
        ]
      }
    },
    {
      "type": "Feature",
      "id": "78710",
      "properties": {
        "id": "78710",
        "name": "Terrassa Est",
        "code": null,
        "lines": [
          "R4"
        ]
      },
      "geometry": {
        "type": "Point",
        "coordinates": [
          2.03963639,
          41.5675296
        ]
      }
    },
    {
      "type": "Feature",
      "id": "78700",
      "properties": {
        "id": "78700",
        "name": "Terrassa Estació Del Nord",
        "code": null,
        "lines": [
          "R4"
        ]
      },
      "geometry": {
        "type": "Point",
        "coordinates": [
          2.01435428,
          41.5697825
        ]
      }
    },
    {
      "type": "Feature",
      "id": "79607",
      "properties": {
        "id": "79607",
        "name": "Tordera",
        "code": null,
        "lines": [
          "R1",
          "R11",
          "R2N"
        ]
      },
      "geometry": {
        "type": "Point",
        "coordinates": [
          2.71957063,
          41.7071687
        ]
      }
    },
    {
      "type": "Feature",
      "id": "77111",
      "properties": {
        "id": "77111",
        "name": "Torelló",
        "code": null,
        "lines": [
          "R3"
        ]
      },
      "geometry": {
        "type": "Point",
        "coordinates": [
          2.25997226,
          42.0520113
        ]
      }
    },
    {
      "type": "Feature",
      "id": "78801",
      "properties": {
        "id": "78801",
        "name": "Torre Del Baró-Vallbona",
        "code": null,
        "lines": [
          "R4",
          "R7"
        ]
      },
      "geometry": {
        "type": "Point",
        "coordinates": [
          2.18102036,
          41.4609684
        ]
      }
    },
    {
      "type": "Feature",
      "id": "71503",
      "properties": {
        "id": "71503",
        "name": "Torredembarra",
        "code": null,
        "lines": [
          "R14",
          "R15",
          "R16",
          "R17",
          "R2S"
        ]
      },
      "geometry": {
        "type": "Point",
        "coordinates": [
          1.40578377,
          41.1427923
        ]
      }
    },
    {
      "type": "Feature",
      "id": "65400",
      "properties": {
        "id": "65400",
        "name": "Tortosa",
        "code": null,
        "lines": [
          "R16"
        ]
      },
      "geometry": {
        "type": "Point",
        "coordinates": [
          0.5230136,
          40.807333
        ]
      }
    },
    {
      "type": "Feature",
      "id": "77305",
      "properties": {
        "id": "77305",
        "name": "Toses",
        "code": null,
        "lines": [
          "R3"
        ]
      },
      "geometry": {
        "type": "Point",
        "coordinates": [
          2.01525836,
          42.3209639
        ]
      }
    },
    {
      "type": "Feature",
      "id": "78408",
      "properties": {
        "id": "78408",
        "name": "Tàrrega",
        "code": null,
        "lines": [
          "RL3",
          "RL4"
        ]
      },
      "geometry": {
        "type": "Point",
        "coordinates": [
          1.138963,
          41.650387
        ]
      }
    },
    {
      "type": "Feature",
      "id": "65314",
      "properties": {
        "id": "65314",
        "name": "Ulldecona-Alcanar-La Sénia",
        "code": null,
        "lines": [
          "R16"
        ]
      },
      "geometry": {
        "type": "Point",
        "coordinates": [
          0.44927448,
          40.5959267
        ]
      }
    },
    {
      "type": "Feature",
      "id": "77307",
      "properties": {
        "id": "77307",
        "name": "Urtx-Alp",
        "code": null,
        "lines": [
          "R3"
        ]
      },
      "geometry": {
        "type": "Point",
        "coordinates": [
          1.89685307,
          42.3768624
        ]
      }
    },
    {
      "type": "Feature",
      "id": "78606",
      "properties": {
        "id": "78606",
        "name": "Vacarisses",
        "code": null,
        "lines": [
          "R4"
        ]
      },
      "geometry": {
        "type": "Point",
        "coordinates": [
          1.8940879,
          41.601928
        ]
      }
    },
    {
      "type": "Feature",
      "id": "78607",
      "properties": {
        "id": "78607",
        "name": "Vacarisses-Torreblanca",
        "code": null,
        "lines": [
          "R4"
        ]
      },
      "geometry": {
        "type": "Point",
        "coordinates": [
          1.91647577,
          41.5869183
        ]
      }
    },
    {
      "type": "Feature",
      "id": "76004",
      "properties": {
        "id": "76004",
        "name": "Valls",
        "code": null,
        "lines": [
          "R2S"
        ]
      },
      "geometry": {
        "type": "Point",
        "coordinates": [
          1.25865179,
          41.2896079
        ]
      }
    },
    {
      "type": "Feature",
      "id": "77109",
      "properties": {
        "id": "77109",
        "name": "Vic",
        "code": null,
        "lines": [
          "R3"
        ]
      },
      "geometry": {
        "type": "Point",
        "coordinates": [
          2.24885665,
          41.9310958
        ]
      }
    },
    {
      "type": "Feature",
      "id": "71401",
      "properties": {
        "id": "71401",
        "name": "Vila-Seca",
        "code": null,
        "lines": [
          "R14",
          "R15",
          "R16",
          "R2S"
        ]
      },
      "geometry": {
        "type": "Point",
        "coordinates": [
          1.15037877,
          41.1128193
        ]
      }
    },
    {
      "type": "Feature",
      "id": "76002",
      "properties": {
        "id": "76002",
        "name": "Vilabella",
        "code": null,
        "lines": [
          "R2S"
        ]
      },
      "geometry": {
        "type": "Point",
        "coordinates": [
          1.31749155,
          41.2395473
        ]
      }
    },
    {
      "type": "Feature",
      "id": "71709",
      "properties": {
        "id": "71709",
        "name": "Viladecans",
        "code": null,
        "lines": [
          "R2",
          "R2S"
        ]
      },
      "geometry": {
        "type": "Point",
        "coordinates": [
          2.02741857,
          41.3095086
        ]
      }
    },
    {
      "type": "Feature",
      "id": "78609",
      "properties": {
        "id": "78609",
        "name": "Viladecavalls",
        "code": null,
        "lines": [
          "R4"
        ]
      },
      "geometry": {
        "type": "Point",
        "coordinates": [
          1.95727015,
          41.5637965
        ]
      }
    },
    {
      "type": "Feature",
      "id": "72204",
      "properties": {
        "id": "72204",
        "name": "Vilafranca Del Penedès",
        "code": null,
        "lines": [
          "R4"
        ]
      },
      "geometry": {
        "type": "Point",
        "coordinates": [
          1.70320131,
          41.3448139
        ]
      }
    },
    {
      "type": "Feature",
      "id": "79311",
      "properties": {
        "id": "79311",
        "name": "Vilajuïga",
        "code": null,
        "lines": [
          "R11",
          "R2N",
          "RG1"
        ]
      },
      "geometry": {
        "type": "Point",
        "coordinates": [
          3.08754626,
          42.3256691
        ]
      }
    },
    {
      "type": "Feature",
      "id": "79308",
      "properties": {
        "id": "79308",
        "name": "Vilamalla",
        "code": null,
        "lines": [
          "R11",
          "R2N",
          "RG1"
        ]
      },
      "geometry": {
        "type": "Point",
        "coordinates": [
          2.97776423,
          42.216362
        ]
      }
    },
    {
      "type": "Feature",
      "id": "71700",
      "properties": {
        "id": "71700",
        "name": "Vilanova I La Geltrú",
        "code": null,
        "lines": [
          "R15",
          "R16",
          "R2",
          "R2S"
        ]
      },
      "geometry": {
        "type": "Point",
        "coordinates": [
          1.73077249,
          41.2203207
        ]
      }
    },
    {
      "type": "Feature",
      "id": "79410",
      "properties": {
        "id": "79410",
        "name": "Vilassar De Mar",
        "code": null,
        "lines": [
          "R1",
          "R2N"
        ]
      },
      "geometry": {
        "type": "Point",
        "coordinates": [
          2.38986104,
          41.5006285
        ]
      }
    },
    {
      "type": "Feature",
      "id": "73009",
      "properties": {
        "id": "73009",
        "name": "Vilaverd",
        "code": null,
        "lines": [
          "R14"
        ]
      },
      "geometry": {
        "type": "Point",
        "coordinates": [
          1.17653235,
          41.3376633
        ]
      }
    },
    {
      "type": "Feature",
      "id": "73006",
      "properties": {
        "id": "73006",
        "name": "Vimbodí I Poblet",
        "code": null,
        "lines": [
          "R14"
        ]
      },
      "geometry": {
        "type": "Point",
        "coordinates": [
          1.04603327,
          41.4027277
        ]
      }
    },
    {
      "type": "Feature",
      "id": "73005",
      "properties": {
        "id": "73005",
        "name": "Vinaixa",
        "code": null,
        "lines": [
          "R14"
        ]
      },
      "geometry": {
        "type": "Point",
        "coordinates": [
          0.9703737,
          41.425141
        ]
      }
    }
  ]
}