{
  "type": "FeatureCollection",
  "features": [
    {
      "type": "Feature",
      "id": "13118",
      "properties": {
        "id": "13118",
        "name": "Abaroa-San Miguel",
        "code": null,
        "lines": [
          "C3"
        ]
      },
      "geometry": {
        "type": "Point",
        "coordinates": [
          -2.8871139,
          43.225648
        ]
      }
    },
    {
      "type": "Feature",
      "id": "15205",
      "properties": {
        "id": "15205",
        "name": "Ablaña",
        "code": null,
        "lines": [
          "C1",
          "C8"
        ]
      },
      "geometry": {
        "type": "Point",
        "coordinates": [
          -5.8057926,
          43.2676032
        ]
      }
    },
    {
      "type": "Feature",
      "id": "05207",
      "properties": {
        "id": "05207",
        "name": "Aboño Apeadero",
        "code": null,
        "lines": [
          "C4"
        ]
      },
      "geometry": {
        "type": "Point",
        "coordinates": [
          -5.7236039,
          43.555049
        ]
      }
    },
    {
      "type": "Feature",
      "id": "05320",
      "properties": {
        "id": "05320",
        "name": "Aces",
        "code": null,
        "lines": [
          "C7"
        ]
      },
      "geometry": {
        "type": "Point",
        "coordinates": [
          -6.0657983,
          43.4399142
        ]
      }
    },
    {
      "type": "Feature",
      "id": "05604",
      "properties": {
        "id": "05604",
        "name": "Adarzo",
        "code": null,
        "lines": [
          "C2"
        ]
      },
      "geometry": {
        "type": "Point",
        "coordinates": [
          -3.8559044,
          43.4534716
        ]
      }
    },
    {
      "type": "Feature",
      "id": "51205",
      "properties": {
        "id": "51205",
        "name": "Aeropuerto De Jerez",
        "code": null,
        "lines": [
          "C1"
        ]
      },
      "geometry": {
        "type": "Point",
        "coordinates": [
          -6.0659384,
          36.7515886
        ]
      }
    },
    {
      "type": "Feature",
      "id": "05409",
      "properties": {
        "id": "05409",
        "name": "Aguda",
        "code": null,
        "lines": [
          "C5"
        ]
      },
      "geometry": {
        "type": "Point",
        "coordinates": [
          -5.7260209,
          43.4655199
        ]
      }
    },
    {
      "type": "Feature",
      "id": "78505",
      "properties": {
        "id": "78505",
        "name": "Aguilar De Segarra",
        "code": null,
        "lines": [
          "RL4"
        ]
      },
      "geometry": {
        "type": "Point",
        "coordinates": [
          1.62372,
          41.738917
        ]
      }
    },
    {
      "type": "Feature",
      "id": "51454",
      "properties": {
        "id": "51454",
        "name": "Alameda Solano",
        "code": null,
        "lines": [
          "T1"
        ]
      },
      "geometry": {
        "type": "Point",
        "coordinates": [
          -6.1445236,
          36.4253775
        ]
      }
    },
    {
      "type": "Feature",
      "id": "64210",
      "properties": {
        "id": "64210",
        "name": "Albal",
        "code": null,
        "lines": [
          "C1",
          "C2"
        ]
      },
      "geometry": {
        "type": "Point",
        "coordinates": [
          -0.4026343,
          39.3918429
        ]
      }
    },
    {
      "type": "Feature",
      "id": "65005",
      "properties": {
        "id": "65005",
        "name": "Albuixech",
        "code": null,
        "lines": [
          "C6"
        ]
      },
      "geometry": {
        "type": "Point",
        "coordinates": [
          -0.3205526,
          39.5435233
        ]
      }
    },
    {
      "type": "Feature",
      "id": "65308",
      "properties": {
        "id": "65308",
        "name": "Alcalá De Chivert",
        "code": null,
        "lines": [
          "C6"
        ]
      },
      "geometry": {
        "type": "Point",
        "coordinates": [
          0.228717,
          40.30469
        ]
      }
    },
    {
      "type": "Feature",
      "id": "70103",
      "properties": {
        "id": "70103",
        "name": "Alcalá De Henares",
        "code": null,
        "lines": [
          "C2",
          "C7"
        ]
      },
      "geometry": {
        "type": "Point",
        "coordinates": [
          -3.3662457,
          40.4890814
        ]
      }
    },
    {
      "type": "Feature",
      "id": "70107",
      "properties": {
        "id": "70107",
        "name": "Alcalá De Henares-Universidad",
        "code": null,
        "lines": [
          "C2",
          "C7"
        ]
      },
      "geometry": {
        "type": "Point",
        "coordinates": [
          -3.3353258,
          40.5054303
        ]
      }
    },
    {
      "type": "Feature",
      "id": "19003",
      "properties": {
        "id": "19003",
        "name": "Alcobendas-San Sebastián De Los Reyes",
        "code": null,
        "lines": [
          "C4A"
        ]
      },
      "geometry": {
        "type": "Point",
        "coordinates": [
          -3.6351731,
          40.5465765
        ]
      }
    },
    {
      "type": "Feature",
      "id": "40121",
      "properties": {
        "id": "40121",
        "name": "Alcolea Del Río",
        "code": null,
        "lines": [
          "C3"
        ]
      },
      "geometry": {
        "type": "Point",
        "coordinates": [
          -5.7308309,
          37.6354557
        ]
      }
    },
    {
      "type": "Feature",
      "id": "35605",
      "properties": {
        "id": "35605",
        "name": "Alcorcón",
        "code": null,
        "lines": [
          "C5"
        ]
      },
      "geometry": {
        "type": "Point",
        "coordinates": [
          -3.8317018,
          40.3502269
        ]
      }
    },
    {
      "type": "Feature",
      "id": "73101",
      "properties": {
        "id": "73101",
        "name": "Alcover",
        "code": null,
        "lines": [
          "R14",
          "RT1"
        ]
      },
      "geometry": {
        "type": "Point",
        "coordinates": [
          1.17416002,
          41.2616066
        ]
      }
    },
    {
      "type": "Feature",
      "id": "66211",
      "properties": {
        "id": "66211",
        "name": "Aldaia",
        "code": null,
        "lines": [
          "C3"
        ]
      },
      "geometry": {
        "type": "Point",
        "coordinates": [
          -0.4632476,
          39.4611179
        ]
      }
    },
    {
      "type": "Feature",
      "id": "11409",
      "properties": {
        "id": "11409",
        "name": "Alegia",
        "code": null,
        "lines": [
          "C1"
        ]
      },
      "geometry": {
        "type": "Point",
        "coordinates": [
          -2.09714,
          43.1017599
        ]
      }
    },
    {
      "type": "Feature",
      "id": "64203",
      "properties": {
        "id": "64203",
        "name": "Alfafar-Benetússer",
        "code": null,
        "lines": [
          "C1",
          "C2"
        ]
      },
      "geometry": {
        "type": "Point",
        "coordinates": [
          -0.392605,
          39.4224232
        ]
      }
    },
    {
      "type": "Feature",
      "id": "64105",
      "properties": {
        "id": "64105",
        "name": "Algemesí",
        "code": null,
        "lines": [
          "C2"
        ]
      },
      "geometry": {
        "type": "Point",
        "coordinates": [
          -0.4409196,
          39.1931484
        ]
      }
    },
    {
      "type": "Feature",
      "id": "67216",
      "properties": {
        "id": "67216",
        "name": "Algimia-Ciudad",
        "code": null,
        "lines": [
          "C5"
        ]
      },
      "geometry": {
        "type": "Point",
        "coordinates": [
          -0.3657542,
          39.7529934
        ]
      }
    },
    {
      "type": "Feature",
      "id": "06002",
      "properties": {
        "id": "06002",
        "name": "Alhama De Murcia",
        "code": null,
        "lines": [
          "C2"
        ]
      },
      "geometry": {
        "type": "Point",
        "coordinates": [
          -1.4145141,
          37.8494024
        ]
      }
    },
    {
      "type": "Feature",
      "id": "60911",
      "properties": {
        "id": "60911",
        "name": "Alicante/Alacant-Terminal",
        "code": null,
        "lines": [
          "C1",
          "C3"
        ]
      },
      "geometry": {
        "type": "Point",
        "coordinates": [
          -0.4955241,
          38.3447127
        ]
      }
    },
    {
      "type": "Feature",
      "id": "54407",
      "properties": {
        "id": "54407",
        "name": "Aljaima",
        "code": null,
        "lines": [
          "C2"
        ]
      },
      "geometry": {
        "type": "Point",
        "coordinates": [
          -4.6645001,
          36.7330833
        ]
      }
    },
    {
      "type": "Feature",
      "id": "65209",
      "properties": {
        "id": "65209",
        "name": "Almassora",
        "code": null,
        "lines": [
          "C6"
        ]
      },
      "geometry": {
        "type": "Point",
        "coordinates": [
          -0.0767713,
          39.9549079
        ]
      }
    },
    {
      "type": "Feature",
      "id": "65202",
      "properties": {
        "id": "65202",
        "name": "Almenara",
        "code": null,
        "lines": [
          "C6"
        ]
      },
      "geometry": {
        "type": "Point",
        "coordinates": [
          -0.2183811,
          39.7487737
        ]
      }
    },
    {
      "type": "Feature",
      "id": "06100",
      "properties": {
        "id": "06100",
        "name": "Almendricos",
        "code": null,
        "lines": [
          "C2"
        ]
      },
      "geometry": {
        "type": "Point",
        "coordinates": [
          -1.7796299,
          37.4748802
        ]
      }
    },
    {
      "type": "Feature",
      "id": "12002",
      "properties": {
        "id": "12002",
        "name": "Alpedrete",
        "code": null,
        "lines": [
          "C8B"
        ]
      },
      "geometry": {
        "type": "Point",
        "coordinates": [
          -4.0349719,
          40.6581044
        ]
      }
    },
    {
      "type": "Feature",
      "id": "71502",
      "properties": {
        "id": "71502",
        "name": "Altafulla-Tamarit",
        "code": null,
        "lines": [
          "R14",
          "R15",
          "R16",
          "R17",
          "R2S"
        ]
      },
      "geometry": {
        "type": "Point",
        "coordinates": [
          1.37341488,
          41.1366479
        ]
      }
    },
    {
      "type": "Feature",
      "id": "05620",
      "properties": {
        "id": "05620",
        "name": "Altamira",
        "code": null,
        "lines": [
          "C2"
        ]
      },
      "geometry": {
        "type": "Point",
        "coordinates": [
          -4.0569699,
          43.3519196
        ]
      }
    },
    {
      "type": "Feature",
      "id": "35600",
      "properties": {
        "id": "35600",
        "name": "Aluche",
        "code": null,
        "lines": [
          "C5"
        ]
      },
      "geometry": {
        "type": "Point",
        "coordinates": [
          -3.7607343,
          40.3856677
        ]
      }
    },
    {
      "type": "Feature",
      "id": "64104",
      "properties": {
        "id": "64104",
        "name": "Alzira",
        "code": null,
        "lines": [
          "C2"
        ]
      },
      "geometry": {
        "type": "Point",
        "coordinates": [
          -0.4506011,
          39.1531495
        ]
      }
    },
    {
      "type": "Feature",
      "id": "13206",
      "properties": {
        "id": "13206",
        "name": "Ametzola",
        "code": null,
        "lines": [
          "C1",
          "C2",
          "C4"
        ]
      },
      "geometry": {
        "type": "Point",
        "coordinates": [
          -2.9436598,
          43.2547065
        ]
      }
    },
    {
      "type": "Feature",
      "id": "13101",
      "properties": {
        "id": "13101",
        "name": "Amurrio",
        "code": null,
        "lines": [
          "C3"
        ]
      },
      "geometry": {
        "type": "Point",
        "coordinates": [
          -3.0020176,
          43.049051
        ]
      }
    },
    {
      "type": "Feature",
      "id": "13121",
      "properties": {
        "id": "13121",
        "name": "Amurrio Iparralde",
        "code": null,
        "lines": [
          "C3"
        ]
      },
      "geometry": {
        "type": "Point",
        "coordinates": [
          -2.9960659,
          43.0578453
        ]
      }
    },
    {
      "type": "Feature",
      "id": "11505",
      "properties": {
        "id": "11505",
        "name": "Andoain",
        "code": null,
        "lines": [
          "C1"
        ]
      },
      "geometry": {
        "type": "Point",
        "coordinates": [
          -2.0156757,
          43.2220458
        ]
      }
    },
    {
      "type": "Feature",
      "id": "11504",
      "properties": {
        "id": "11504",
        "name": "Andoain-Centro",
        "code": null,
        "lines": [
          "C1"
        ]
      },
      "geometry": {
        "type": "Point",
        "coordinates": [
          -2.0204595,
          43.2155738
        ]
      }
    },
    {
      "type": "Feature",
      "id": "78407",
      "properties": {
        "id": "78407",
        "name": "Anglesola",
        "code": null,
        "lines": [
          "RL3",
          "RL4"
        ]
      },
      "geometry": {
        "type": "Point",
        "coordinates": [
          1.079192,
          41.646448
        ]
      }
    },
    {
      "type": "Feature",
      "id": "11502",
      "properties": {
        "id": "11502",
        "name": "Anoeta",
        "code": null,
        "lines": [
          "C1"
        ]
      },
      "geometry": {
        "type": "Point",
        "coordinates": [
          -2.0703897,
          43.1626064
        ]
      }
    },
    {
      "type": "Feature",
      "id": "13117",
      "properties": {
        "id": "13117",
        "name": "Arakaldo",
        "code": null,
        "lines": [
          "C3"
        ]
      },
      "geometry": {
        "type": "Point",
        "coordinates": [
          -2.9382027,
          43.1535592
        ]
      }
    },
    {
      "type": "Feature",
      "id": "05473",
      "properties": {
        "id": "05473",
        "name": "Aranguren",
        "code": null,
        "lines": [
          "C4"
        ]
      },
      "geometry": {
        "type": "Point",
        "coordinates": [
          -3.108399,
          43.2104561
        ]
      }
    },
    {
      "type": "Feature",
      "id": "05474",
      "properties": {
        "id": "05474",
        "name": "Aranguren-Apeadero",
        "code": null,
        "lines": [
          "C4"
        ]
      },
      "geometry": {
        "type": "Point",
        "coordinates": [
          -3.1140505,
          43.2103517
        ]
      }
    },
    {
      "type": "Feature",
      "id": "60200",
      "properties": {
        "id": "60200",
        "name": "Aranjuez",
        "code": null,
        "lines": [
          "C3"
        ]
      },
      "geometry": {
        "type": "Point",
        "coordinates": [
          -3.6182534,
          40.0350257
        ]
      }
    },
    {
      "type": "Feature",
      "id": "10001",
      "properties": {
        "id": "10001",
        "name": "Aravaca",
        "code": null,
        "lines": [
          "C10",
          "C7"
        ]
      },
      "geometry": {
        "type": "Point",
        "coordinates": [
          -3.7855547,
          40.4484551
        ]
      }
    },
    {
      "type": "Feature",
      "id": "13108",
      "properties": {
        "id": "13108",
        "name": "Arbide",
        "code": null,
        "lines": [
          "C3"
        ]
      },
      "geometry": {
        "type": "Point",
        "coordinates": [
          -2.9278362,
          43.1632587
        ]
      }
    },
    {
      "type": "Feature",
      "id": "14235",
      "properties": {
        "id": "14235",
        "name": "Arenas De Iguña",
        "code": null,
        "lines": [
          "C1"
        ]
      },
      "geometry": {
        "type": "Point",
        "coordinates": [
          -4.0500754,
          43.1850828
        ]
      }
    },
    {
      "type": "Feature",
      "id": "79600",
      "properties": {
        "id": "79600",
        "name": "Arenys De Mar",
        "code": null,
        "lines": [
          "R1",
          "R2N"
        ]
      },
      "geometry": {
        "type": "Point",
        "coordinates": [
          2.54933744,
          41.577699
        ]
      }
    },
    {
      "type": "Feature",
      "id": "13107",
      "properties": {
        "id": "13107",
        "name": "Areta",
        "code": null,
        "lines": [
          "C3"
        ]
      },
      "geometry": {
        "type": "Point",
        "coordinates": [
          -2.9433913,
          43.1451273
        ]
      }
    },
    {
      "type": "Feature",
      "id": "05301",
      "properties": {
        "id": "05301",
        "name": "Argañosa-Lavapiés",
        "code": null,
        "lines": [
          "C7"
        ]
      },
      "geometry": {
        "type": "Point",
        "coordinates": [
          -5.870018,
          43.3658311
        ]
      }
    },
    {
      "type": "Feature",
      "id": "05740",
      "properties": {
        "id": "05740",
        "name": "Arija",
        "code": null,
        "lines": [
          "C4"
        ]
      },
      "geometry": {
        "type": "Point",
        "coordinates": [
          -3.945006,
          42.991292
        ]
      }
    },
    {
      "type": "Feature",
      "id": "05721",
      "properties": {
        "id": "05721",
        "name": "Arla Berrón",
        "code": null,
        "lines": [
          "C4"
        ]
      },
      "geometry": {
        "type": "Point",
        "coordinates": [
          -3.227589,
          43.166699
        ]
      }
    },
    {
      "type": "Feature",
      "id": "13109",
      "properties": {
        "id": "13109",
        "name": "Arrankudiaga",
        "code": null,
        "lines": [
          "C3"
        ]
      },
      "geometry": {
        "type": "Point",
        "coordinates": [
          -2.9184485,
          43.1694994
        ]
      }
    },
    {
      "type": "Feature",
      "id": "13111",
      "properties": {
        "id": "13111",
        "name": "Arrigorriaga",
        "code": null,
        "lines": [
          "C3"
        ]
      },
      "geometry": {
        "type": "Point",
        "coordinates": [
          -2.8885723,
          43.2100868
        ]
      }
    },
    {
      "type": "Feature",
      "id": "05469",
      "properties": {
        "id": "05469",
        "name": "Artxube",
        "code": null,
        "lines": [
          "C4"
        ]
      },
      "geometry": {
        "type": "Point",
        "coordinates": [
          -3.0715031,
          43.200993
        ]
      }
    },
    {
      "type": "Feature",
      "id": "05489",
      "properties": {
        "id": "05489",
        "name": "Artzentales",
        "code": null,
        "lines": [
          "C4"
        ]
      },
      "geometry": {
        "type": "Point",
        "coordinates": [
          -3.22,
          43.25
        ]
      }
    },
    {
      "type": "Feature",
      "id": "70002",
      "properties": {
        "id": "70002",
        "name": "Asamblea De Madrid-Entrevías",
        "code": null,
        "lines": [
          "C2",
          "C7"
        ]
      },
      "geometry": {
        "type": "Point",
        "coordinates": [
          -3.6680454,
          40.3818618
        ]
      }
    },
    {
      "type": "Feature",
      "id": "71211",
      "properties": {
        "id": "71211",
        "name": "Ascó",
        "code": null,
        "lines": [
          "R15",
          "R2S"
        ]
      },
      "geometry": {
        "type": "Point",
        "coordinates": [
          0.56902524,
          41.1823727
        ]
      }
    },
    {
      "type": "Feature",
      "id": "05657",
      "properties": {
        "id": "05657",
        "name": "Astillero",
        "code": null,
        "lines": [
          "C3"
        ]
      },
      "geometry": {
        "type": "Point",
        "coordinates": [
          -3.8206798,
          43.4036508
        ]
      }
    },
    {
      "type": "Feature",
      "id": "11513",
      "properties": {
        "id": "11513",
        "name": "Ategorrieta",
        "code": null,
        "lines": [
          "C1"
        ]
      },
      "geometry": {
        "type": "Point",
        "coordinates": [
          -1.9598127,
          43.3203225
        ]
      }
    },
    {
      "type": "Feature",
      "id": "13207",
      "properties": {
        "id": "13207",
        "name": "Autonomía",
        "code": null,
        "lines": [
          "C1",
          "C2"
        ]
      },
      "geometry": {
        "type": "Point",
        "coordinates": [
          -2.9460321,
          43.2581339
        ]
      }
    },
    {
      "type": "Feature",
      "id": "16403",
      "properties": {
        "id": "16403",
        "name": "Avilés",
        "code": null,
        "lines": [
          "C3",
          "C4"
        ]
      },
      "geometry": {
        "type": "Point",
        "coordinates": [
          -5.9228329,
          43.561339
        ]
      }
    },
    {
      "type": "Feature",
      "id": "05221",
      "properties": {
        "id": "05221",
        "name": "Avilés-Apeadero",
        "code": null,
        "lines": [
          "C4"
        ]
      },
      "geometry": {
        "type": "Point",
        "coordinates": [
          -5.9174416,
          43.5546343
        ]
      }
    },
    {
      "type": "Feature",
      "id": "70105",
      "properties": {
        "id": "70105",
        "name": "Azuqueca",
        "code": null,
        "lines": [
          "C2",
          "C7"
        ]
      },
      "geometry": {
        "type": "Point",
        "coordinates": [
          -3.265397,
          40.561077
        ]
      }
    },
    {
      "type": "Feature",
      "id": "79404",
      "properties": {
        "id": "79404",
        "name": "Badalona",
        "code": null,
        "lines": [
          "R1",
          "R2N"
        ]
      },
      "geometry": {
        "type": "Point",
        "coordinates": [
          2.24892096,
          41.4458838
        ]
      }
    },
    {
      "type": "Feature",
      "id": "05361",
      "properties": {
        "id": "05361",
        "name": "Baiña",
        "code": null,
        "lines": [
          "C8"
        ]
      },
      "geometry": {
        "type": "Point",
        "coordinates": [
          -5.8282902,
          43.2744717
        ]
      }
    },
    {
      "type": "Feature",
      "id": "13115",
      "properties": {
        "id": "13115",
        "name": "Bakiola",
        "code": null,
        "lines": [
          "C3"
        ]
      },
      "geometry": {
        "type": "Point",
        "coordinates": [
          -2.90907,
          43.1769858
        ]
      }
    },
    {
      "type": "Feature",
      "id": "77106",
      "properties": {
        "id": "77106",
        "name": "Balenyà-Els Hostalets",
        "code": null,
        "lines": [
          "R3"
        ]
      },
      "geometry": {
        "type": "Point",
        "coordinates": [
          2.23331523,
          41.8149511
        ]
      }
    },
    {
      "type": "Feature",
      "id": "77107",
      "properties": {
        "id": "77107",
        "name": "Balenyà-Tona-Seva",
        "code": null,
        "lines": [
          "R3"
        ]
      },
      "geometry": {
        "type": "Point",
        "coordinates": [
          2.2474424,
          41.8419076
        ]
      }
    },
    {
      "type": "Feature",
      "id": "05483",
      "properties": {
        "id": "05483",
        "name": "Balmaseda",
        "code": null,
        "lines": [
          "C4"
        ]
      },
      "geometry": {
        "type": "Point",
        "coordinates": [
          -3.1899562,
          43.1963551
        ]
      }
    },
    {
      "type": "Feature",
      "id": "78705",
      "properties": {
        "id": "78705",
        "name": "Barberà Del Vallès",
        "code": null,
        "lines": [
          "R4"
        ]
      },
      "geometry": {
        "type": "Point",
        "coordinates": [
          2.11845269,
          41.5136598
        ]
      }
    },
    {
      "type": "Feature",
      "id": "79400",
      "properties": {
        "id": "79400",
        "name": "Barcelona Estació De França",
        "code": null,
        "lines": [
          "R13",
          "R14",
          "R15",
          "R16",
          "R17",
          "R2N",
          "R2S"
        ]
      },
      "geometry": {
        "type": "Point",
        "coordinates": [
          2.18534785,
          41.3844866
        ]
      }
    },
    {
      "type": "Feature",
      "id": "78804",
      "properties": {
        "id": "78804",
        "name": "Barcelona-Arc De Triomf",
        "code": null,
        "lines": [
          "R1",
          "R2N",
          "R4"
        ]
      },
      "geometry": {
        "type": "Point",
        "coordinates": [
          2.18063916,
          41.3919048
        ]
      }
    },
    {
      "type": "Feature",
      "id": "79009",
      "properties": {
        "id": "79009",
        "name": "Barcelona-El Clot",
        "code": null,
        "lines": [
          "R1",
          "R11",
          "R2",
          "R2N"
        ]
      },
      "geometry": {
        "type": "Point",
        "coordinates": [
          2.18719759,
          41.4092979
        ]
      }
    },
    {
      "type": "Feature",
      "id": "78806",
      "properties": {
        "id": "78806",
        "name": "Barcelona-La Sagrera-Meridiana",
        "code": null,
        "lines": [
          "R4"
        ]
      },
      "geometry": {
        "type": "Point",
        "coordinates": [
          2.18711031,
          41.421848
        ]
      }
    },
    {
      "type": "Feature",
      "id": "71802",
      "properties": {
        "id": "71802",
        "name": "Barcelona-Passeig De Gràcia",
        "code": null,
        "lines": [
          "R11",
          "R13",
          "R14",
          "R15",
          "R16",
          "R17",
          "R2",
          "R2N",
          "R2S"
        ]
      },
      "geometry": {
        "type": "Point",
        "coordinates": [
          2.16533862,
          41.3920862
        ]
      }
    },
    {
      "type": "Feature",
      "id": "78805",
      "properties": {
        "id": "78805",
        "name": "Barcelona-Plaça De Catalunya",
        "code": null,
        "lines": [
          "R1",
          "R2N",
          "R4"
        ]
      },
      "geometry": {
        "type": "Point",
        "coordinates": [
          2.16970383,
          41.3879231
        ]
      }
    },
    {
      "type": "Feature",
      "id": "79004",
      "properties": {
        "id": "79004",
        "name": "Barcelona-Sant Andreu",
        "code": null,
        "lines": [
          "R11",
          "R2",
          "R2N"
        ]
      },
      "geometry": {
        "type": "Point",
        "coordinates": [
          2.19319866,
          41.4361251
        ]
      }
    },
    {
      "type": "Feature",
      "id": "71801",
      "properties": {
        "id": "71801",
        "name": "Barcelona-Sants",
        "code": null,
        "lines": [
          "R1",
          "R11",
          "R13",
          "R14",
          "R15",
          "R16",
          "R17",
          "R2",
          "R2N",
          "R2S",
          "R4"
        ]
      },
      "geometry": {
        "type": "Point",
        "coordinates": [
          2.14101688,
          41.3798632
        ]
      }
    },
    {
      "type": "Feature",
      "id": "05619",
      "properties": {
        "id": "05619",
        "name": "Barreda",
        "code": null,
        "lines": [
          "C2"
        ]
      },
      "geometry": {
        "type": "Point",
        "coordinates": [
          -4.0418972,
          43.3742833
        ]
      }
    },
    {
      "type": "Feature",
      "id": "05441",
      "properties": {
        "id": "05441",
        "name": "Barredos",
        "code": null,
        "lines": [
          "C5"
        ]
      },
      "geometry": {
        "type": "Point",
        "coordinates": [
          -5.5749934,
          43.2598889
        ]
      }
    },
    {
      "type": "Feature",
      "id": "16006",
      "properties": {
        "id": "16006",
        "name": "Barros",
        "code": null,
        "lines": [
          "C2"
        ]
      },
      "geometry": {
        "type": "Point",
        "coordinates": [
          -5.7109141,
          43.3178302
        ]
      }
    },
    {
      "type": "Feature",
      "id": "13112",
      "properties": {
        "id": "13112",
        "name": "Basauri",
        "code": null,
        "lines": [
          "C3"
        ]
      },
      "geometry": {
        "type": "Point",
        "coordinates": [
          -2.8823858,
          43.2235298
        ]
      }
    },
    {
      "type": "Feature",
      "id": "05455",
      "properties": {
        "id": "05455",
        "name": "Basurto Hospital",
        "code": null,
        "lines": [
          "C4"
        ]
      },
      "geometry": {
        "type": "Point",
        "coordinates": [
          -2.9538267,
          43.2597699
        ]
      }
    },
    {
      "type": "Feature",
      "id": "11404",
      "properties": {
        "id": "11404",
        "name": "Beasain",
        "code": null,
        "lines": [
          "C1"
        ]
      },
      "geometry": {
        "type": "Point",
        "coordinates": [
          -2.2022994,
          43.0462687
        ]
      }
    },
    {
      "type": "Feature",
      "id": "05323",
      "properties": {
        "id": "05323",
        "name": "Beifar",
        "code": null,
        "lines": [
          "C7"
        ]
      },
      "geometry": {
        "type": "Point",
        "coordinates": [
          -6.0988707,
          43.4701379
        ]
      }
    },
    {
      "type": "Feature",
      "id": "78402",
      "properties": {
        "id": "78402",
        "name": "Bell-Lloc D'urgell",
        "code": null,
        "lines": [
          "RL3",
          "RL4"
        ]
      },
      "geometry": {
        "type": "Point",
        "coordinates": [
          0.781547,
          41.631619
        ]
      }
    },
    {
      "type": "Feature",
      "id": "51111",
      "properties": {
        "id": "51111",
        "name": "Bellavista",
        "code": null,
        "lines": [
          "C1",
          "C4",
          "C5"
        ]
      },
      "geometry": {
        "type": "Point",
        "coordinates": [
          -5.9641924,
          37.3215188
        ]
      }
    },
    {
      "type": "Feature",
      "id": "78406",
      "properties": {
        "id": "78406",
        "name": "Bellpuig",
        "code": null,
        "lines": [
          "RL3",
          "RL4"
        ]
      },
      "geometry": {
        "type": "Point",
        "coordinates": [
          1.012993,
          41.632545
        ]
      }
    },
    {
      "type": "Feature",
      "id": "71708",
      "properties": {
        "id": "71708",
        "name": "Bellvitge-Gornal",
        "code": null,
        "lines": [
          "R2",
          "R2N",
          "R2S"
        ]
      },
      "geometry": {
        "type": "Point",
        "coordinates": [
          2.1152733,
          41.3549216
        ]
      }
    },
    {
      "type": "Feature",
      "id": "43005",
      "properties": {
        "id": "43005",
        "name": "Benacazón",
        "code": null,
        "lines": [
          "C5"
        ]
      },
      "geometry": {
        "type": "Point",
        "coordinates": [
          -6.2082011,
          37.3568512
        ]
      }
    },
    {
      "type": "Feature",
      "id": "54511",
      "properties": {
        "id": "54511",
        "name": "Benalmádena-Arroyo De La Miel",
        "code": null,
        "lines": [
          "C1"
        ]
      },
      "geometry": {
        "type": "Point",
        "coordinates": [
          -4.5363459,
          36.5991116
        ]
      }
    },
    {
      "type": "Feature",
      "id": "05415",
      "properties": {
        "id": "05415",
        "name": "Bendición",
        "code": null,
        "lines": [
          "C5"
        ]
      },
      "geometry": {
        "type": "Point",
        "coordinates": [
          -5.680585,
          43.3634748
        ]
      }
    },
    {
      "type": "Feature",
      "id": "65311",
      "properties": {
        "id": "65311",
        "name": "Benicarló-Peñíscola",
        "code": null,
        "lines": [
          "C6"
        ]
      },
      "geometry": {
        "type": "Point",
        "coordinates": [
          0.415217,
          40.427639
        ]
      }
    },
    {
      "type": "Feature",
      "id": "65318",
      "properties": {
        "id": "65318",
        "name": "Benicàssim",
        "code": null,
        "lines": [
          "C6"
        ]
      },
      "geometry": {
        "type": "Point",
        "coordinates": [
          0.0577646,
          40.0579451
        ]
      }
    },
    {
      "type": "Feature",
      "id": "62001",
      "properties": {
        "id": "62001",
        "name": "Beniel",
        "code": null,
        "lines": [
          "C1"
        ]
      },
      "geometry": {
        "type": "Point",
        "coordinates": [
          -0.9994759,
          38.0448608
        ]
      }
    },
    {
      "type": "Feature",
      "id": "64107",
      "properties": {
        "id": "64107",
        "name": "Benifaió",
        "code": null,
        "lines": [
          "C2"
        ]
      },
      "geometry": {
        "type": "Point",
        "coordinates": [
          -0.4299537,
          39.2843027
        ]
      }
    },
    {
      "type": "Feature",
      "id": "05677",
      "properties": {
        "id": "05677",
        "name": "Beranga",
        "code": null,
        "lines": [
          "C3"
        ]
      },
      "geometry": {
        "type": "Point",
        "coordinates": [
          -3.57713,
          43.41371
        ]
      }
    },
    {
      "type": "Feature",
      "id": "05730",
      "properties": {
        "id": "05730",
        "name": "Bercedo-Montija",
        "code": null,
        "lines": [
          "C4"
        ]
      },
      "geometry": {
        "type": "Point",
        "coordinates": [
          -3.456,
          43.088479
        ]
      }
    },
    {
      "type": "Feature",
      "id": "05605",
      "properties": {
        "id": "05605",
        "name": "Bezana",
        "code": null,
        "lines": [
          "C2"
        ]
      },
      "geometry": {
        "type": "Point",
        "coordinates": [
          -3.8995921,
          43.4408549
        ]
      }
    },
    {
      "type": "Feature",
      "id": "13113",
      "properties": {
        "id": "13113",
        "name": "Bidebieta-Basauri",
        "code": null,
        "lines": [
          "C3"
        ]
      },
      "geometry": {
        "type": "Point",
        "coordinates": [
          -2.8894856,
          43.237057
        ]
      }
    },
    {
      "type": "Feature",
      "id": "05451",
      "properties": {
        "id": "05451",
        "name": "Bilbao La Concordia",
        "code": null,
        "lines": [
          "C4"
        ]
      },
      "geometry": {
        "type": "Point",
        "coordinates": [
          -2.9263839,
          43.2601901
        ]
      }
    },
    {
      "type": "Feature",
      "id": "13200",
      "properties": {
        "id": "13200",
        "name": "Bilbao-Intermod. Abando Indalecio Prieto",
        "code": null,
        "lines": [
          "C1",
          "C2",
          "C3"
        ]
      },
      "geometry": {
        "type": "Point",
        "coordinates": [
          -2.9285592,
          43.2601304
        ]
      }
    },
    {
      "type": "Feature",
      "id": "11503",
      "properties": {
        "id": "11503",
        "name": "Billabona-Zizurkil",
        "code": null,
        "lines": [
          "C1"
        ]
      },
      "geometry": {
        "type": "Point",
        "coordinates": [
          -2.0553722,
          43.1891906
        ]
      }
    },
    {
      "type": "Feature",
      "id": "79606",
      "properties": {
        "id": "79606",
        "name": "Blanes",
        "code": null,
        "lines": [
          "R1",
          "R2N"
        ]
      },
      "geometry": {
        "type": "Point",
        "coordinates": [
          2.7692697,
          41.6736157
        ]
      }
    },
    {
      "type": "Feature",
      "id": "05439",
      "properties": {
        "id": "05439",
        "name": "Blimea",
        "code": null,
        "lines": [
          "C5"
        ]
      },
      "geometry": {
        "type": "Point",
        "coordinates": [
          -5.5903311,
          43.2708812
        ]
      }
    },
    {
      "type": "Feature",
      "id": "14219",
      "properties": {
        "id": "14219",
        "name": "Boo",
        "code": null,
        "lines": [
          "C1"
        ]
      },
      "geometry": {
        "type": "Point",
        "coordinates": [
          -3.8415883,
          43.4104796
        ]
      }
    },
    {
      "type": "Feature",
      "id": "05609",
      "properties": {
        "id": "05609",
        "name": "Boo De Piélagos",
        "code": null,
        "lines": [
          "C2"
        ]
      },
      "geometry": {
        "type": "Point",
        "coordinates": [
          -3.9463107,
          43.4316558
        ]
      }
    },
    {
      "type": "Feature",
      "id": "79302",
      "properties": {
        "id": "79302",
        "name": "Bordils-Juià",
        "code": null,
        "lines": [
          "R11",
          "R2N",
          "RG1"
        ]
      },
      "geometry": {
        "type": "Point",
        "coordinates": [
          2.91529561,
          42.0370568
        ]
      }
    },
    {
      "type": "Feature",
      "id": "77112",
      "properties": {
        "id": "77112",
        "name": "Borgonyà",
        "code": null,
        "lines": [
          "R3"
        ]
      },
      "geometry": {
        "type": "Point",
        "coordinates": [
          2.24200567,
          42.0646586
        ]
      }
    },
    {
      "type": "Feature",
      "id": "05766",
      "properties": {
        "id": "05766",
        "name": "Boñar",
        "code": null,
        "lines": [
          "C4"
        ]
      },
      "geometry": {
        "type": "Point",
        "coordinates": [
          -5.3285261,
          42.8627875
        ]
      }
    },
    {
      "type": "Feature",
      "id": "50702",
      "properties": {
        "id": "50702",
        "name": "Brenes",
        "code": null,
        "lines": [
          "C1",
          "C3"
        ]
      },
      "geometry": {
        "type": "Point",
        "coordinates": [
          -5.8667821,
          37.5463276
        ]
      }
    },
    {
      "type": "Feature",
      "id": "11305",
      "properties": {
        "id": "11305",
        "name": "Brinkola",
        "code": null,
        "lines": [
          "C1"
        ]
      },
      "geometry": {
        "type": "Point",
        "coordinates": [
          -2.3346811,
          43.0189865
        ]
      }
    },
    {
      "type": "Feature",
      "id": "65207",
      "properties": {
        "id": "65207",
        "name": "Burriana-Alquerías Niño Perdido",
        "code": null,
        "lines": [
          "C6"
        ]
      },
      "geometry": {
        "type": "Point",
        "coordinates": [
          -0.1038601,
          39.8965088
        ]
      }
    },
    {
      "type": "Feature",
      "id": "66206",
      "properties": {
        "id": "66206",
        "name": "Buñol",
        "code": null,
        "lines": [
          "C3"
        ]
      },
      "geometry": {
        "type": "Point",
        "coordinates": [
          -0.7873638,
          39.427139
        ]
      }
    },
    {
      "type": "Feature",
      "id": "14206",
      "properties": {
        "id": "14206",
        "name": "Bárcena",
        "code": null,
        "lines": [
          "C1"
        ]
      },
      "geometry": {
        "type": "Point",
        "coordinates": [
          -4.053473,
          43.1287054
        ]
      }
    },
    {
      "type": "Feature",
      "id": "05385",
      "properties": {
        "id": "05385",
        "name": "Cabañaquinta",
        "code": null,
        "lines": [
          "C8"
        ]
      },
      "geometry": {
        "type": "Point",
        "coordinates": [
          -5.6248987,
          43.16077
        ]
      }
    },
    {
      "type": "Feature",
      "id": "05739",
      "properties": {
        "id": "05739",
        "name": "Cabañas De Virtus",
        "code": null,
        "lines": [
          "C4"
        ]
      },
      "geometry": {
        "type": "Point",
        "coordinates": [
          -3.858466,
          42.996397
        ]
      }
    },
    {
      "type": "Feature",
      "id": "05637",
      "properties": {
        "id": "05637",
        "name": "Cabezón De La Sal",
        "code": null,
        "lines": [
          "C2"
        ]
      },
      "geometry": {
        "type": "Point",
        "coordinates": [
          -4.2319437,
          43.3079038
        ]
      }
    },
    {
      "type": "Feature",
      "id": "05377",
      "properties": {
        "id": "05377",
        "name": "Caborana",
        "code": null,
        "lines": [
          "C8"
        ]
      },
      "geometry": {
        "type": "Point",
        "coordinates": [
          -5.7548626,
          43.1761169
        ]
      }
    },
    {
      "type": "Feature",
      "id": "79412",
      "properties": {
        "id": "79412",
        "name": "Cabrera De Mar-Vilassar De Mar",
        "code": null,
        "lines": [
          "R1",
          "R2N"
        ]
      },
      "geometry": {
        "type": "Point",
        "coordinates": [
          2.40162431,
          41.5067718
        ]
      }
    },
    {
      "type": "Feature",
      "id": "05727",
      "properties": {
        "id": "05727",
        "name": "Cadagua",
        "code": null,
        "lines": [
          "C4"
        ]
      },
      "geometry": {
        "type": "Point",
        "coordinates": [
          -3.347339,
          43.068171
        ]
      }
    },
    {
      "type": "Feature",
      "id": "78503",
      "properties": {
        "id": "78503",
        "name": "Calaf",
        "code": null,
        "lines": [
          "RL4"
        ]
      },
      "geometry": {
        "type": "Point",
        "coordinates": [
          1.515097,
          41.730334
        ]
      }
    },
    {
      "type": "Feature",
      "id": "71601",
      "properties": {
        "id": "71601",
        "name": "Calafell",
        "code": null,
        "lines": [
          "R2",
          "R2S"
        ]
      },
      "geometry": {
        "type": "Point",
        "coordinates": [
          1.57500937,
          41.1896703
        ]
      }
    },
    {
      "type": "Feature",
      "id": "79502",
      "properties": {
        "id": "79502",
        "name": "Caldes D'estrac",
        "code": null,
        "lines": [
          "R1",
          "R2N"
        ]
      },
      "geometry": {
        "type": "Point",
        "coordinates": [
          2.52598143,
          41.5686082
        ]
      }
    },
    {
      "type": "Feature",
      "id": "79203",
      "properties": {
        "id": "79203",
        "name": "Caldes De Malavella",
        "code": null,
        "lines": [
          "R11",
          "R2N",
          "RG1"
        ]
      },
      "geometry": {
        "type": "Point",
        "coordinates": [
          2.80076692,
          41.84111
        ]
      }
    },
    {
      "type": "Feature",
      "id": "79603",
      "properties": {
        "id": "79603",
        "name": "Calella",
        "code": null,
        "lines": [
          "R1",
          "R2N"
        ]
      },
      "geometry": {
        "type": "Point",
        "coordinates": [
          2.66599517,
          41.6146911
        ]
      }
    },
    {
      "type": "Feature",
      "id": "62003",
      "properties": {
        "id": "62003",
        "name": "Callosa De Segura",
        "code": null,
        "lines": [
          "C1"
        ]
      },
      "geometry": {
        "type": "Point",
        "coordinates": [
          -0.8745747,
          38.1227686
        ]
      }
    },
    {
      "type": "Feature",
      "id": "15401",
      "properties": {
        "id": "15401",
        "name": "Calzada De Asturias",
        "code": null,
        "lines": [
          "C1"
        ]
      },
      "geometry": {
        "type": "Point",
        "coordinates": [
          -5.6971507,
          43.5353848
        ]
      }
    },
    {
      "type": "Feature",
      "id": "79305",
      "properties": {
        "id": "79305",
        "name": "Camallera",
        "code": null,
        "lines": [
          "R11",
          "R2N",
          "RG1"
        ]
      },
      "geometry": {
        "type": "Point",
        "coordinates": [
          2.96536522,
          42.1223297
        ]
      }
    },
    {
      "type": "Feature",
      "id": "65403",
      "properties": {
        "id": "65403",
        "name": "Camarles-Deltebre",
        "code": null,
        "lines": [
          "R16"
        ]
      },
      "geometry": {
        "type": "Point",
        "coordinates": [
          0.67176095,
          40.7747633
        ]
      }
    },
    {
      "type": "Feature",
      "id": "43002",
      "properties": {
        "id": "43002",
        "name": "Camas",
        "code": null,
        "lines": [
          "C5"
        ]
      },
      "geometry": {
        "type": "Point",
        "coordinates": [
          -6.0408469,
          37.4177385
        ]
      }
    },
    {
      "type": "Feature",
      "id": "65422",
      "properties": {
        "id": "65422",
        "name": "Cambrils",
        "code": null,
        "lines": [
          "R16"
        ]
      },
      "geometry": {
        "type": "Point",
        "coordinates": [
          1.04603752,
          41.0815642
        ]
      }
    },
    {
      "type": "Feature",
      "id": "65401",
      "properties": {
        "id": "65401",
        "name": "Camp-Redó",
        "code": null,
        "lines": [
          "R16"
        ]
      },
      "geometry": {
        "type": "Point",
        "coordinates": [
          0.55584433,
          40.7591556
        ]
      }
    },
    {
      "type": "Feature",
      "id": "54410",
      "properties": {
        "id": "54410",
        "name": "Campanillas",
        "code": null,
        "lines": [
          "C2"
        ]
      },
      "geometry": {
        "type": "Point",
        "coordinates": [
          -4.5454825,
          36.7050436
        ]
      }
    },
    {
      "type": "Feature",
      "id": "77301",
      "properties": {
        "id": "77301",
        "name": "Campdevànol",
        "code": null,
        "lines": [
          "R3"
        ]
      },
      "geometry": {
        "type": "Point",
        "coordinates": [
          2.16575839,
          42.2217131
        ]
      }
    },
    {
      "type": "Feature",
      "id": "15120",
      "properties": {
        "id": "15120",
        "name": "Campomanes",
        "code": null,
        "lines": [
          "C1"
        ]
      },
      "geometry": {
        "type": "Point",
        "coordinates": [
          -5.8164466,
          43.1100681
        ]
      }
    },
    {
      "type": "Feature",
      "id": "16302",
      "properties": {
        "id": "16302",
        "name": "Cancienes",
        "code": null,
        "lines": [
          "C3"
        ]
      },
      "geometry": {
        "type": "Point",
        "coordinates": [
          -5.8692521,
          43.507333
        ]
      }
    },
    {
      "type": "Feature",
      "id": "05211",
      "properties": {
        "id": "05211",
        "name": "Candás",
        "code": null,
        "lines": [
          "C4"
        ]
      },
      "geometry": {
        "type": "Point",
        "coordinates": [
          -5.7726902,
          43.5847107
        ]
      }
    },
    {
      "type": "Feature",
      "id": "05210",
      "properties": {
        "id": "05210",
        "name": "Candás-Apeadero",
        "code": null,
        "lines": [
          "C4"
        ]
      },
      "geometry": {
        "type": "Point",
        "coordinates": [
          -5.7679715,
          43.586538
        ]
      }
    },
    {
      "type": "Feature",
      "id": "79601",
      "properties": {
        "id": "79601",
        "name": "Canet De Mar",
        "code": null,
        "lines": [
          "R1",
          "R2N"
        ]
      },
      "geometry": {
        "type": "Point",
        "coordinates": [
          2.58128887,
          41.5866691
        ]
      }
    },
    {
      "type": "Feature",
      "id": "51112",
      "properties": {
        "id": "51112",
        "name": "Cantaelgallo",
        "code": null,
        "lines": [
          "C1",
          "C4"
        ]
      },
      "geometry": {
        "type": "Point",
        "coordinates": [
          -5.9104397,
          37.2782197
        ]
      }
    },
    {
      "type": "Feature",
      "id": "50701",
      "properties": {
        "id": "50701",
        "name": "Cantillana",
        "code": null,
        "lines": [
          "C1",
          "C3"
        ]
      },
      "geometry": {
        "type": "Point",
        "coordinates": [
          -5.8032073,
          37.5749689
        ]
      }
    },
    {
      "type": "Feature",
      "id": "71302",
      "properties": {
        "id": "71302",
        "name": "Capçanes",
        "code": null,
        "lines": [
          "R15",
          "R2S"
        ]
      },
      "geometry": {
        "type": "Point",
        "coordinates": [
          0.78036099,
          41.1020902
        ]
      }
    },
    {
      "type": "Feature",
      "id": "05529",
      "properties": {
        "id": "05529",
        "name": "Carancos",
        "code": null,
        "lines": [
          "C6"
        ]
      },
      "geometry": {
        "type": "Point",
        "coordinates": [
          -5.4344422,
          43.3555692
        ]
      }
    },
    {
      "type": "Feature",
      "id": "05417",
      "properties": {
        "id": "05417",
        "name": "Carbayín",
        "code": null,
        "lines": [
          "C5"
        ]
      },
      "geometry": {
        "type": "Point",
        "coordinates": [
          -5.6343348,
          43.3507215
        ]
      }
    },
    {
      "type": "Feature",
      "id": "64103",
      "properties": {
        "id": "64103",
        "name": "Carcaixent",
        "code": null,
        "lines": [
          "C2"
        ]
      },
      "geometry": {
        "type": "Point",
        "coordinates": [
          -0.4544102,
          39.1205251
        ]
      }
    },
    {
      "type": "Feature",
      "id": "79101",
      "properties": {
        "id": "79101",
        "name": "Cardedeu",
        "code": null,
        "lines": [
          "R2",
          "R2N"
        ]
      },
      "geometry": {
        "type": "Point",
        "coordinates": [
          2.35626265,
          41.6367012
        ]
      }
    },
    {
      "type": "Feature",
      "id": "05435",
      "properties": {
        "id": "05435",
        "name": "Carrocera",
        "code": null,
        "lines": [
          "C5"
        ]
      },
      "geometry": {
        "type": "Point",
        "coordinates": [
          -5.6263765,
          43.2877335
        ]
      }
    },
    {
      "type": "Feature",
      "id": "51050",
      "properties": {
        "id": "51050",
        "name": "Cartuja",
        "code": null,
        "lines": [
          "C2"
        ]
      },
      "geometry": {
        "type": "Point",
        "coordinates": [
          -6.0101856,
          37.4074574
        ]
      }
    },
    {
      "type": "Feature",
      "id": "54513",
      "properties": {
        "id": "54513",
        "name": "Carvajal",
        "code": null,
        "lines": [
          "C1"
        ]
      },
      "geometry": {
        "type": "Point",
        "coordinates": [
          -4.5940491,
          36.570259
        ]
      }
    },
    {
      "type": "Feature",
      "id": "05631",
      "properties": {
        "id": "05631",
        "name": "Casar De Periedo",
        "code": null,
        "lines": [
          "C2"
        ]
      },
      "geometry": {
        "type": "Point",
        "coordinates": [
          -4.174731,
          43.3387837
        ]
      }
    },
    {
      "type": "Feature",
      "id": "70800",
      "properties": {
        "id": "70800",
        "name": "Casetas",
        "code": null,
        "lines": [
          "C1"
        ]
      },
      "geometry": {
        "type": "Point",
        "coordinates": [
          -1.0201916,
          41.7226479
        ]
      }
    },
    {
      "type": "Feature",
      "id": "71204",
      "properties": {
        "id": "71204",
        "name": "Caspe",
        "code": null,
        "lines": [
          "R15",
          "R2S"
        ]
      },
      "geometry": {
        "type": "Point",
        "coordinates": [
          -0.042701,
          41.239738
        ]
      }
    },
    {
      "type": "Feature",
      "id": "78605",
      "properties": {
        "id": "78605",
        "name": "Castellbell I El Vilar-Monist Montserrat",
        "code": null,
        "lines": [
          "R4"
        ]
      },
      "geometry": {
        "type": "Point",
        "coordinates": [
          1.86882093,
          41.6286826
        ]
      }
    },
    {
      "type": "Feature",
      "id": "72210",
      "properties": {
        "id": "72210",
        "name": "Castellbisbal",
        "code": null,
        "lines": [
          "R4",
          "R8"
        ]
      },
      "geometry": {
        "type": "Point",
        "coordinates": [
          1.96756971,
          41.4734152
        ]
      }
    },
    {
      "type": "Feature",
      "id": "71705",
      "properties": {
        "id": "71705",
        "name": "Castelldefels",
        "code": null,
        "lines": [
          "R2",
          "R2S"
        ]
      },
      "geometry": {
        "type": "Point",
        "coordinates": [
          1.97915126,
          41.2790474
        ]
      }
    },
    {
      "type": "Feature",
      "id": "78405",
      "properties": {
        "id": "78405",
        "name": "Castellnou De Seana",
        "code": null,
        "lines": [
          "RL3",
          "RL4"
        ]
      },
      "geometry": {
        "type": "Point",
        "coordinates": [
          0.967736,
          41.637464
        ]
      }
    },
    {
      "type": "Feature",
      "id": "65300",
      "properties": {
        "id": "65300",
        "name": "Castelló De La Plana",
        "code": null,
        "lines": [
          "C6"
        ]
      },
      "geometry": {
        "type": "Point",
        "coordinates": [
          -0.0523456,
          39.9884736
        ]
      }
    },
    {
      "type": "Feature",
      "id": "05750",
      "properties": {
        "id": "05750",
        "name": "Castrejón De La Peña",
        "code": null,
        "lines": [
          "C4"
        ]
      },
      "geometry": {
        "type": "Point",
        "coordinates": [
          -4.60162,
          42.81199
        ]
      }
    },
    {
      "type": "Feature",
      "id": "64201",
      "properties": {
        "id": "64201",
        "name": "Catarroja",
        "code": null,
        "lines": [
          "C1",
          "C2"
        ]
      },
      "geometry": {
        "type": "Point",
        "coordinates": [
          -0.3992195,
          39.4000447
        ]
      }
    },
    {
      "type": "Feature",
      "id": "05371",
      "properties": {
        "id": "05371",
        "name": "Caudalia",
        "code": null,
        "lines": [
          "C8"
        ]
      },
      "geometry": {
        "type": "Point",
        "coordinates": [
          -5.782774,
          43.2282154
        ]
      }
    },
    {
      "type": "Feature",
      "id": "67211",
      "properties": {
        "id": "67211",
        "name": "Caudiel",
        "code": null,
        "lines": [
          "C5"
        ]
      },
      "geometry": {
        "type": "Point",
        "coordinates": [
          -0.5720537,
          39.9473696
        ]
      }
    },
    {
      "type": "Feature",
      "id": "40113",
      "properties": {
        "id": "40113",
        "name": "Cazalla-Constantina",
        "code": null,
        "lines": [
          "C3"
        ]
      },
      "geometry": {
        "type": "Point",
        "coordinates": [
          -5.704433,
          37.9328637
        ]
      }
    },
    {
      "type": "Feature",
      "id": "05603",
      "properties": {
        "id": "05603",
        "name": "Cazoña",
        "code": null,
        "lines": [
          "C2"
        ]
      },
      "geometry": {
        "type": "Point",
        "coordinates": [
          -3.8411637,
          43.4551542
        ]
      }
    },
    {
      "type": "Feature",
      "id": "05527",
      "properties": {
        "id": "05527",
        "name": "Ceceda",
        "code": null,
        "lines": [
          "C6"
        ]
      },
      "geometry": {
        "type": "Point",
        "coordinates": [
          -5.4511094,
          43.3562226
        ]
      }
    },
    {
      "type": "Feature",
      "id": "05667",
      "properties": {
        "id": "05667",
        "name": "Ceceñas",
        "code": null,
        "lines": [
          "C3"
        ]
      },
      "geometry": {
        "type": "Point",
        "coordinates": [
          -3.7181918,
          43.3764924
        ]
      }
    },
    {
      "type": "Feature",
      "id": "79301",
      "properties": {
        "id": "79301",
        "name": "Celrà",
        "code": null,
        "lines": [
          "R11",
          "R2N",
          "RG1"
        ]
      },
      "geometry": {
        "type": "Point",
        "coordinates": [
          2.87490587,
          42.0271984
        ]
      }
    },
    {
      "type": "Feature",
      "id": "77105",
      "properties": {
        "id": "77105",
        "name": "Centelles",
        "code": null,
        "lines": [
          "R3"
        ]
      },
      "geometry": {
        "type": "Point",
        "coordinates": [
          2.22263552,
          41.7993947
        ]
      }
    },
    {
      "type": "Feature",
      "id": "05204",
      "properties": {
        "id": "05204",
        "name": "Centro De Transportes",
        "code": null,
        "lines": [
          "C4"
        ]
      },
      "geometry": {
        "type": "Point",
        "coordinates": [
          -5.7067165,
          43.5311295
        ]
      }
    },
    {
      "type": "Feature",
      "id": "79316",
      "properties": {
        "id": "79316",
        "name": "Cerbère",
        "code": null,
        "lines": [
          "R11"
        ]
      },
      "geometry": {
        "type": "Point",
        "coordinates": [
          3.16314935,
          42.441664
        ]
      }
    },
    {
      "type": "Feature",
      "id": "12006",
      "properties": {
        "id": "12006",
        "name": "Cercedilla",
        "code": null,
        "lines": [
          "C8B",
          "C9"
        ]
      },
      "geometry": {
        "type": "Point",
        "coordinates": [
          -4.0662985,
          40.7376129
        ]
      }
    },
    {
      "type": "Feature",
      "id": "78706",
      "properties": {
        "id": "78706",
        "name": "Cerdanyola Del Vallès",
        "code": null,
        "lines": [
          "R4"
        ]
      },
      "geometry": {
        "type": "Point",
        "coordinates": [
          2.14752164,
          41.4925608
        ]
      }
    },
    {
      "type": "Feature",
      "id": "72503",
      "properties": {
        "id": "72503",
        "name": "Cerdanyola Universitat",
        "code": null,
        "lines": [
          "R8"
        ]
      },
      "geometry": {
        "type": "Point",
        "coordinates": [
          2.1153777,
          41.4969904
        ]
      }
    },
    {
      "type": "Feature",
      "id": "05799",
      "properties": {
        "id": "05799",
        "name": "Cerezal De La Guzpeña",
        "code": null,
        "lines": [
          "C4"
        ]
      },
      "geometry": {
        "type": "Point",
        "coordinates": [
          -5.0055719,
          42.7797744
        ]
      }
    },
    {
      "type": "Feature",
      "id": "78500",
      "properties": {
        "id": "78500",
        "name": "Cervera",
        "code": null,
        "lines": [
          "RL3",
          "RL4"
        ]
      },
      "geometry": {
        "type": "Point",
        "coordinates": [
          1.274773,
          41.673611
        ]
      }
    },
    {
      "type": "Feature",
      "id": "66208",
      "properties": {
        "id": "66208",
        "name": "Cheste",
        "code": null,
        "lines": [
          "C3"
        ]
      },
      "geometry": {
        "type": "Point",
        "coordinates": [
          -0.6862639,
          39.490903
        ]
      }
    },
    {
      "type": "Feature",
      "id": "65204",
      "properties": {
        "id": "65204",
        "name": "Chilches/Xilxes",
        "code": null,
        "lines": [
          "C6"
        ]
      },
      "geometry": {
        "type": "Point",
        "coordinates": [
          -0.1903295,
          39.7826726
        ]
      }
    },
    {
      "type": "Feature",
      "id": "66207",
      "properties": {
        "id": "66207",
        "name": "Chiva",
        "code": null,
        "lines": [
          "C3"
        ]
      },
      "geometry": {
        "type": "Point",
        "coordinates": [
          -0.7229414,
          39.4711268
        ]
      }
    },
    {
      "type": "Feature",
      "id": "16010",
      "properties": {
        "id": "16010",
        "name": "Ciaño",
        "code": null,
        "lines": [
          "C2"
        ]
      },
      "geometry": {
        "type": "Point",
        "coordinates": [
          -5.6686704,
          43.2893884
        ]
      }
    },
    {
      "type": "Feature",
      "id": "05431",
      "properties": {
        "id": "05431",
        "name": "Ciaño Escobio",
        "code": null,
        "lines": [
          "C5"
        ]
      },
      "geometry": {
        "type": "Point",
        "coordinates": [
          -5.6678998,
          43.2907242
        ]
      }
    },
    {
      "type": "Feature",
      "id": "05681",
      "properties": {
        "id": "05681",
        "name": "Cicero",
        "code": null,
        "lines": [
          "C3"
        ]
      },
      "geometry": {
        "type": "Point",
        "coordinates": [
          -3.49049,
          43.417052
        ]
      }
    },
    {
      "type": "Feature",
      "id": "60105",
      "properties": {
        "id": "60105",
        "name": "Ciempozuelos",
        "code": null,
        "lines": [
          "C3"
        ]
      },
      "geometry": {
        "type": "Point",
        "coordinates": [
          -3.6101851,
          40.1592011
        ]
      }
    },
    {
      "type": "Feature",
      "id": "05747",
      "properties": {
        "id": "05747",
        "name": "Cillamayor",
        "code": null,
        "lines": [
          "C4"
        ]
      },
      "geometry": {
        "type": "Point",
        "coordinates": [
          -4.279178,
          42.857752
        ]
      }
    },
    {
      "type": "Feature",
      "id": "66210",
      "properties": {
        "id": "66210",
        "name": "Circuit Ricardo Tormo",
        "code": null,
        "lines": [
          "C3"
        ]
      },
      "geometry": {
        "type": "Point",
        "coordinates": [
          -0.6247545,
          39.4954379
        ]
      }
    },
    {
      "type": "Feature",
      "id": "05761",
      "properties": {
        "id": "05761",
        "name": "Cistierna",
        "code": null,
        "lines": [
          "C4"
        ]
      },
      "geometry": {
        "type": "Point",
        "coordinates": [
          -5.1307925,
          42.80316
        ]
      }
    },
    {
      "type": "Feature",
      "id": "05477",
      "properties": {
        "id": "05477",
        "name": "Colegio",
        "code": null,
        "lines": [
          "C4"
        ]
      },
      "geometry": {
        "type": "Point",
        "coordinates": [
          -3.1381409,
          43.2112674
        ]
      }
    },
    {
      "type": "Feature",
      "id": "79314",
      "properties": {
        "id": "79314",
        "name": "Colera",
        "code": null,
        "lines": [
          "R11",
          "R2N",
          "RG1"
        ]
      },
      "geometry": {
        "type": "Point",
        "coordinates": [
          3.15434316,
          42.4068837
        ]
      }
    },
    {
      "type": "Feature",
      "id": "12004",
      "properties": {
        "id": "12004",
        "name": "Collado Mediano",
        "code": null,
        "lines": [
          "C8B"
        ]
      },
      "geometry": {
        "type": "Point",
        "coordinates": [
          -4.0359271,
          40.6928982
        ]
      }
    },
    {
      "type": "Feature",
      "id": "05389",
      "properties": {
        "id": "05389",
        "name": "Collanzo",
        "code": null,
        "lines": [
          "C8"
        ]
      },
      "geometry": {
        "type": "Point",
        "coordinates": [
          -5.5661544,
          43.1241004
        ]
      }
    },
    {
      "type": "Feature",
      "id": "05505",
      "properties": {
        "id": "05505",
        "name": "Colloto",
        "code": null,
        "lines": [
          "C5A",
          "C6"
        ]
      },
      "geometry": {
        "type": "Point",
        "coordinates": [
          -5.792366,
          43.3795086
        ]
      }
    },
    {
      "type": "Feature",
      "id": "17005",
      "properties": {
        "id": "17005",
        "name": "Colmenar Viejo",
        "code": null,
        "lines": [
          "C4B"
        ]
      },
      "geometry": {
        "type": "Point",
        "coordinates": [
          -3.7766142,
          40.6452094
        ]
      }
    },
    {
      "type": "Feature",
      "id": "51461",
      "properties": {
        "id": "51461",
        "name": "Compañía De María",
        "code": null,
        "lines": [
          "T1"
        ]
      },
      "geometry": {
        "type": "Point",
        "coordinates": [
          -6.2010115,
          36.4604371
        ]
      }
    },
    {
      "type": "Feature",
      "id": "05382",
      "properties": {
        "id": "05382",
        "name": "Corigos",
        "code": null,
        "lines": [
          "C8"
        ]
      },
      "geometry": {
        "type": "Point",
        "coordinates": [
          -5.6766513,
          43.1642867
        ]
      }
    },
    {
      "type": "Feature",
      "id": "72303",
      "properties": {
        "id": "72303",
        "name": "Cornellà",
        "code": null,
        "lines": [
          "R4"
        ]
      },
      "geometry": {
        "type": "Point",
        "coordinates": [
          2.07054907,
          41.3575214
        ]
      }
    },
    {
      "type": "Feature",
      "id": "51407",
      "properties": {
        "id": "51407",
        "name": "Cortadura",
        "code": null,
        "lines": [
          "C1",
          "T1"
        ]
      },
      "geometry": {
        "type": "Point",
        "coordinates": [
          -6.2682384,
          36.4943672
        ]
      }
    },
    {
      "type": "Feature",
      "id": "70108",
      "properties": {
        "id": "70108",
        "name": "Coslada",
        "code": null,
        "lines": [
          "C2",
          "C7"
        ]
      },
      "geometry": {
        "type": "Point",
        "coordinates": [
          -3.5611109,
          40.423237
        ]
      }
    },
    {
      "type": "Feature",
      "id": "62101",
      "properties": {
        "id": "62101",
        "name": "Crevillente",
        "code": null,
        "lines": [
          "C1"
        ]
      },
      "geometry": {
        "type": "Point",
        "coordinates": [
          -0.7815283,
          38.2245622
        ]
      }
    },
    {
      "type": "Feature",
      "id": "05220",
      "properties": {
        "id": "05220",
        "name": "Cristalería",
        "code": null,
        "lines": [
          "C4"
        ]
      },
      "geometry": {
        "type": "Point",
        "coordinates": [
          -5.9292414,
          43.5755676
        ]
      }
    },
    {
      "type": "Feature",
      "id": "35603",
      "properties": {
        "id": "35603",
        "name": "Cuatro Vientos",
        "code": null,
        "lines": [
          "C5"
        ]
      },
      "geometry": {
        "type": "Point",
        "coordinates": [
          -3.79151,
          40.3777651
        ]
      }
    },
    {
      "type": "Feature",
      "id": "71604",
      "properties": {
        "id": "71604",
        "name": "Cubelles",
        "code": null,
        "lines": [
          "R2",
          "R2S"
        ]
      },
      "geometry": {
        "type": "Point",
        "coordinates": [
          1.6759772,
          41.2043246
        ]
      }
    },
    {
      "type": "Feature",
      "id": "05245",
      "properties": {
        "id": "05245",
        "name": "Cudillero",
        "code": null,
        "lines": [
          "C4",
          "C7"
        ]
      },
      "geometry": {
        "type": "Point",
        "coordinates": [
          -6.1519305,
          43.5509259
        ]
      }
    },
    {
      "type": "Feature",
      "id": "69104",
      "properties": {
        "id": "69104",
        "name": "Cullera",
        "code": null,
        "lines": [
          "C1"
        ]
      },
      "geometry": {
        "type": "Point",
        "coordinates": [
          -0.2632437,
          39.1778885
        ]
      }
    },
    {
      "type": "Feature",
      "id": "71603",
      "properties": {
        "id": "71603",
        "name": "Cunit",
        "code": null,
        "lines": [
          "R2",
          "R2S"
        ]
      },
      "geometry": {
        "type": "Point",
        "coordinates": [
          1.63194242,
          41.1950415
        ]
      }
    },
    {
      "type": "Feature",
      "id": "05420",
      "properties": {
        "id": "05420",
        "name": "Curuxona",
        "code": null,
        "lines": [
          "C5"
        ]
      },
      "geometry": {
        "type": "Point",
        "coordinates": [
          -5.6304762,
          43.3398152
        ]
      }
    },
    {
      "type": "Feature",
      "id": "51405",
      "properties": {
        "id": "51405",
        "name": "Cádiz",
        "code": null,
        "lines": [
          "C1",
          "T1"
        ]
      },
      "geometry": {
        "type": "Point",
        "coordinates": [
          -6.2879716,
          36.528935
        ]
      }
    },
    {
      "type": "Feature",
      "id": "51409",
      "properties": {
        "id": "51409",
        "name": "Cádiz-Estadio",
        "code": null,
        "lines": [
          "C1",
          "T1"
        ]
      },
      "geometry": {
        "type": "Point",
        "coordinates": [
          -6.2720644,
          36.5029461
        ]
      }
    },
    {
      "type": "Feature",
      "id": "54408",
      "properties": {
        "id": "54408",
        "name": "Cártama",
        "code": null,
        "lines": [
          "C2"
        ]
      },
      "geometry": {
        "type": "Point",
        "coordinates": [
          -4.6083966,
          36.7337392
        ]
      }
    },
    {
      "type": "Feature",
      "id": "18004",
      "properties": {
        "id": "18004",
        "name": "Delicias",
        "code": null,
        "lines": [
          "C10"
        ]
      },
      "geometry": {
        "type": "Point",
        "coordinates": [
          -3.6927766,
          40.4004375
        ]
      }
    },
    {
      "type": "Feature",
      "id": "13400",
      "properties": {
        "id": "13400",
        "name": "Desertu-Barakaldo",
        "code": null,
        "lines": [
          "C1",
          "C2"
        ]
      },
      "geometry": {
        "type": "Point",
        "coordinates": [
          -2.984409,
          43.3000264
        ]
      }
    },
    {
      "type": "Feature",
      "id": "35702",
      "properties": {
        "id": "35702",
        "name": "Doce De Octubre",
        "code": null,
        "lines": [
          "C5"
        ]
      },
      "geometry": {
        "type": "Point",
        "coordinates": [
          -3.6986988,
          40.378921
        ]
      }
    },
    {
      "type": "Feature",
      "id": "51103",
      "properties": {
        "id": "51103",
        "name": "Dos Hermanas",
        "code": null,
        "lines": [
          "C1",
          "C4",
          "C5"
        ]
      },
      "geometry": {
        "type": "Point",
        "coordinates": [
          -5.9235322,
          37.2872259
        ]
      }
    },
    {
      "type": "Feature",
      "id": "05736",
      "properties": {
        "id": "05736",
        "name": "Dosante Cidad",
        "code": null,
        "lines": [
          "C4"
        ]
      },
      "geometry": {
        "type": "Point",
        "coordinates": [
          -3.74525,
          43.00125
        ]
      }
    },
    {
      "type": "Feature",
      "id": "71305",
      "properties": {
        "id": "71305",
        "name": "Duesaigües-L'argentera",
        "code": null,
        "lines": [
          "R15",
          "R2S"
        ]
      },
      "geometry": {
        "type": "Point",
        "coordinates": [
          0.92087096,
          41.1436928
        ]
      }
    },
    {
      "type": "Feature",
      "id": "05644",
      "properties": {
        "id": "05644",
        "name": "El Barcenal",
        "code": null,
        "lines": [
          "C2"
        ]
      },
      "geometry": {
        "type": "Point",
        "coordinates": [
          -4.383335,
          43.340347
        ]
      }
    },
    {
      "type": "Feature",
      "id": "10010",
      "properties": {
        "id": "10010",
        "name": "El Barrial-Centro Comercial Pozuelo",
        "code": null,
        "lines": [
          "C10",
          "C7"
        ]
      },
      "geometry": {
        "type": "Point",
        "coordinates": [
          -3.8076854,
          40.4653918
        ]
      }
    },
    {
      "type": "Feature",
      "id": "05509",
      "properties": {
        "id": "05509",
        "name": "El Berrón",
        "code": null,
        "lines": [
          "C5",
          "C5A",
          "C6"
        ]
      },
      "geometry": {
        "type": "Point",
        "coordinates": [
          -5.7026774,
          43.3827383
        ]
      }
    },
    {
      "type": "Feature",
      "id": "15210",
      "properties": {
        "id": "15210",
        "name": "El Caleyo",
        "code": null,
        "lines": [
          "C1",
          "C2"
        ]
      },
      "geometry": {
        "type": "Point",
        "coordinates": [
          -5.8733323,
          43.3290466
        ]
      }
    },
    {
      "type": "Feature",
      "id": "60109",
      "properties": {
        "id": "60109",
        "name": "El Casar",
        "code": null,
        "lines": [
          "C3"
        ]
      },
      "geometry": {
        "type": "Point",
        "coordinates": [
          -3.7098062,
          40.3185223
        ]
      }
    },
    {
      "type": "Feature",
      "id": "50704",
      "properties": {
        "id": "50704",
        "name": "El Cáñamo",
        "code": null,
        "lines": [
          "C1",
          "C3"
        ]
      },
      "geometry": {
        "type": "Point",
        "coordinates": [
          -5.932975,
          37.4863952
        ]
      }
    },
    {
      "type": "Feature",
      "id": "16011",
      "properties": {
        "id": "16011",
        "name": "El Entrego",
        "code": null,
        "lines": [
          "C2"
        ]
      },
      "geometry": {
        "type": "Point",
        "coordinates": [
          -5.6408474,
          43.2895167
        ]
      }
    },
    {
      "type": "Feature",
      "id": "05433",
      "properties": {
        "id": "05433",
        "name": "El Entrego La Oscura",
        "code": null,
        "lines": [
          "C5"
        ]
      },
      "geometry": {
        "type": "Point",
        "coordinates": [
          -5.6408099,
          43.2895101
        ]
      }
    },
    {
      "type": "Feature",
      "id": "10203",
      "properties": {
        "id": "10203",
        "name": "El Escorial",
        "code": null,
        "lines": [
          "C10",
          "C8A"
        ]
      },
      "geometry": {
        "type": "Point",
        "coordinates": [
          -4.1324053,
          40.5853675
        ]
      }
    },
    {
      "type": "Feature",
      "id": "17003",
      "properties": {
        "id": "17003",
        "name": "El Goloso",
        "code": null,
        "lines": [
          "C4",
          "C4B"
        ]
      },
      "geometry": {
        "type": "Point",
        "coordinates": [
          -3.7139714,
          40.5588966
        ]
      }
    },
    {
      "type": "Feature",
      "id": "79407",
      "properties": {
        "id": "79407",
        "name": "El Masnou",
        "code": null,
        "lines": [
          "R1",
          "R2N"
        ]
      },
      "geometry": {
        "type": "Point",
        "coordinates": [
          2.3103772,
          41.4770363
        ]
      }
    },
    {
      "type": "Feature",
      "id": "72211",
      "properties": {
        "id": "72211",
        "name": "El Papiol",
        "code": null,
        "lines": [
          "R4"
        ]
      },
      "geometry": {
        "type": "Point",
        "coordinates": [
          2.00257792,
          41.4353713
        ]
      }
    },
    {
      "type": "Feature",
      "id": "05232",
      "properties": {
        "id": "05232",
        "name": "El Parador",
        "code": null,
        "lines": [
          "C4"
        ]
      },
      "geometry": {
        "type": "Point",
        "coordinates": [
          -6.0705907,
          43.5351412
        ]
      }
    },
    {
      "type": "Feature",
      "id": "54510",
      "properties": {
        "id": "54510",
        "name": "El Pinillo",
        "code": null,
        "lines": [
          "C1"
        ]
      },
      "geometry": {
        "type": "Point",
        "coordinates": [
          -4.5153735,
          36.6098688
        ]
      }
    },
    {
      "type": "Feature",
      "id": "05244",
      "properties": {
        "id": "05244",
        "name": "El Pito Piñera",
        "code": null,
        "lines": [
          "C4"
        ]
      },
      "geometry": {
        "type": "Point",
        "coordinates": [
          -6.1433417,
          43.5469091
        ]
      }
    },
    {
      "type": "Feature",
      "id": "70003",
      "properties": {
        "id": "70003",
        "name": "El Pozo",
        "code": null,
        "lines": [
          "C2",
          "C7"
        ]
      },
      "geometry": {
        "type": "Point",
        "coordinates": [
          -3.6561407,
          40.3760377
        ]
      }
    },
    {
      "type": "Feature",
      "id": "72400",
      "properties": {
        "id": "72400",
        "name": "El Prat Aeroport",
        "code": null,
        "lines": [
          "R2N"
        ]
      },
      "geometry": {
        "type": "Point",
        "coordinates": [
          2.07340133,
          41.3041813
        ]
      }
    },
    {
      "type": "Feature",
      "id": "71707",
      "properties": {
        "id": "71707",
        "name": "El Prat De Llobregat",
        "code": null,
        "lines": [
          "R2",
          "R2N",
          "R2S"
        ]
      },
      "geometry": {
        "type": "Point",
        "coordinates": [
          2.08934473,
          41.3309401
        ]
      }
    },
    {
      "type": "Feature",
      "id": "65007",
      "properties": {
        "id": "65007",
        "name": "El Puig",
        "code": null,
        "lines": [
          "C6"
        ]
      },
      "geometry": {
        "type": "Point",
        "coordinates": [
          -0.3116645,
          39.588302
        ]
      }
    },
    {
      "type": "Feature",
      "id": "66203",
      "properties": {
        "id": "66203",
        "name": "El Rebollar",
        "code": null,
        "lines": [
          "C3"
        ]
      },
      "geometry": {
        "type": "Point",
        "coordinates": [
          -1.0116025,
          39.4773604
        ]
      }
    },
    {
      "type": "Feature",
      "id": "05521",
      "properties": {
        "id": "05521",
        "name": "El Remedio",
        "code": null,
        "lines": [
          "C6"
        ]
      },
      "geometry": {
        "type": "Point",
        "coordinates": [
          -5.5462394,
          43.3750793
        ]
      }
    },
    {
      "type": "Feature",
      "id": "69101",
      "properties": {
        "id": "69101",
        "name": "El Romaní",
        "code": null,
        "lines": [
          "C1"
        ]
      },
      "geometry": {
        "type": "Point",
        "coordinates": [
          -0.3942354,
          39.3029789
        ]
      }
    },
    {
      "type": "Feature",
      "id": "72201",
      "properties": {
        "id": "72201",
        "name": "El Vendrell",
        "code": null,
        "lines": [
          "R4"
        ]
      },
      "geometry": {
        "type": "Point",
        "coordinates": [
          1.53790552,
          41.2210057
        ]
      }
    },
    {
      "type": "Feature",
      "id": "62102",
      "properties": {
        "id": "62102",
        "name": "Elche/Elx-Carrús",
        "code": null,
        "lines": [
          "C1"
        ]
      },
      "geometry": {
        "type": "Point",
        "coordinates": [
          -0.7063992,
          38.2689783
        ]
      }
    },
    {
      "type": "Feature",
      "id": "62103",
      "properties": {
        "id": "62103",
        "name": "Elche/Elx-Parc",
        "code": null,
        "lines": [
          "C1"
        ]
      },
      "geometry": {
        "type": "Point",
        "coordinates": [
          -0.6952193,
          38.2717809
        ]
      }
    },
    {
      "type": "Feature",
      "id": "72203",
      "properties": {
        "id": "72203",
        "name": "Els Monjos",
        "code": null,
        "lines": [
          "R4"
        ]
      },
      "geometry": {
        "type": "Point",
        "coordinates": [
          1.65988402,
          41.3147135
        ]
      }
    },
    {
      "type": "Feature",
      "id": "35609",
      "properties": {
        "id": "35609",
        "name": "Embajadores",
        "code": null,
        "lines": [
          "C5"
        ]
      },
      "geometry": {
        "type": "Point",
        "coordinates": [
          -3.702579,
          40.4046484
        ]
      }
    },
    {
      "type": "Feature",
      "id": "05732",
      "properties": {
        "id": "05732",
        "name": "Espinosa De Los Monteros",
        "code": null,
        "lines": [
          "C4"
        ]
      },
      "geometry": {
        "type": "Point",
        "coordinates": [
          -3.537116,
          43.074252
        ]
      }
    },
    {
      "type": "Feature",
      "id": "51051",
      "properties": {
        "id": "51051",
        "name": "Estadio Olímpico",
        "code": null,
        "lines": [
          "C2"
        ]
      },
      "geometry": {
        "type": "Point",
        "coordinates": [
          -6.007496,
          37.4174307
        ]
      }
    },
    {
      "type": "Feature",
      "id": "67221",
      "properties": {
        "id": "67221",
        "name": "Estivella-Albalat Dels Tarongers",
        "code": null,
        "lines": [
          "C5"
        ]
      },
      "geometry": {
        "type": "Point",
        "coordinates": [
          -0.348324,
          39.706408
        ]
      }
    },
    {
      "type": "Feature",
      "id": "71206",
      "properties": {
        "id": "71206",
        "name": "Fabara",
        "code": null,
        "lines": [
          "R15",
          "R2S"
        ]
      },
      "geometry": {
        "type": "Point",
        "coordinates": [
          0.143284,
          41.234405
        ]
      }
    },
    {
      "type": "Feature",
      "id": "78802",
      "properties": {
        "id": "78802",
        "name": "Fabra I Puig",
        "code": null,
        "lines": [
          "R3",
          "R4"
        ]
      },
      "geometry": {
        "type": "Point",
        "coordinates": [
          2.18332907,
          41.4303481
        ]
      }
    },
    {
      "type": "Feature",
      "id": "71208",
      "properties": {
        "id": "71208",
        "name": "Faió-La Pobla De Massaluca",
        "code": null,
        "lines": [
          "R15",
          "R2S"
        ]
      },
      "geometry": {
        "type": "Point",
        "coordinates": [
          0.35110259,
          41.2250555
        ]
      }
    },
    {
      "type": "Feature",
      "id": "16301",
      "properties": {
        "id": "16301",
        "name": "Ferroñes",
        "code": null,
        "lines": [
          "C3"
        ]
      },
      "geometry": {
        "type": "Point",
        "coordinates": [
          -5.8616217,
          43.4760338
        ]
      }
    },
    {
      "type": "Feature",
      "id": "05373",
      "properties": {
        "id": "05373",
        "name": "Figaredo",
        "code": null,
        "lines": [
          "C8"
        ]
      },
      "geometry": {
        "type": "Point",
        "coordinates": [
          -5.7840362,
          43.2138398
        ]
      }
    },
    {
      "type": "Feature",
      "id": "77103",
      "properties": {
        "id": "77103",
        "name": "Figaró",
        "code": null,
        "lines": [
          "R3"
        ]
      },
      "geometry": {
        "type": "Point",
        "coordinates": [
          2.27160129,
          41.7213454
        ]
      }
    },
    {
      "type": "Feature",
      "id": "79309",
      "properties": {
        "id": "79309",
        "name": "Figueres",
        "code": null,
        "lines": [
          "R11",
          "R2N",
          "RG1"
        ]
      },
      "geometry": {
        "type": "Point",
        "coordinates": [
          2.96880074,
          42.2651134
        ]
      }
    },
    {
      "type": "Feature",
      "id": "79303",
      "properties": {
        "id": "79303",
        "name": "Flaçà",
        "code": null,
        "lines": [
          "R11",
          "R2N",
          "RG1"
        ]
      },
      "geometry": {
        "type": "Point",
        "coordinates": [
          2.95740315,
          42.047477
        ]
      }
    },
    {
      "type": "Feature",
      "id": "71210",
      "properties": {
        "id": "71210",
        "name": "Flix",
        "code": null,
        "lines": [
          "R15",
          "R2S"
        ]
      },
      "geometry": {
        "type": "Point",
        "coordinates": [
          0.54010012,
          41.2293651
        ]
      }
    },
    {
      "type": "Feature",
      "id": "05508",
      "properties": {
        "id": "05508",
        "name": "Fonciello",
        "code": null,
        "lines": [
          "C6"
        ]
      },
      "geometry": {
        "type": "Point",
        "coordinates": [
          -5.7297194,
          43.3817779
        ]
      }
    },
    {
      "type": "Feature",
      "id": "79205",
      "properties": {
        "id": "79205",
        "name": "Fornells De La Selva",
        "code": null,
        "lines": [
          "R11",
          "R2N",
          "RG1"
        ]
      },
      "geometry": {
        "type": "Point",
        "coordinates": [
          2.80978324,
          41.935043
        ]
      }
    },
    {
      "type": "Feature",
      "id": "17001",
      "properties": {
        "id": "17001",
        "name": "Fuencarral",
        "code": null,
        "lines": [
          "C4",
          "C4A",
          "C4B"
        ]
      },
      "geometry": {
        "type": "Point",
        "coordinates": [
          -3.6825042,
          40.5015603
        ]
      }
    },
    {
      "type": "Feature",
      "id": "54516",
      "properties": {
        "id": "54516",
        "name": "Fuengirola",
        "code": null,
        "lines": [
          "C1"
        ]
      },
      "geometry": {
        "type": "Point",
        "coordinates": [
          -4.623858,
          36.5418947
        ]
      }
    },
    {
      "type": "Feature",
      "id": "35002",
      "properties": {
        "id": "35002",
        "name": "Fuenlabrada",
        "code": null,
        "lines": [
          "C5"
        ]
      },
      "geometry": {
        "type": "Point",
        "coordinates": [
          -3.7994429,
          40.2833784
        ]
      }
    },
    {
      "type": "Feature",
      "id": "98003",
      "properties": {
        "id": "98003",
        "name": "Fuente De La Mora",
        "code": null,
        "lines": [
          "C1",
          "C2"
        ]
      },
      "geometry": {
        "type": "Point",
        "coordinates": [
          -3.6630608,
          40.48472
        ]
      }
    },
    {
      "type": "Feature",
      "id": "05525",
      "properties": {
        "id": "05525",
        "name": "Fuente Santa De Nava",
        "code": null,
        "lines": [
          "C6"
        ]
      },
      "geometry": {
        "type": "Point",
        "coordinates": [
          -5.478379,
          43.3555699
        ]
      }
    },
    {
      "type": "Feature",
      "id": "10104",
      "properties": {
        "id": "10104",
        "name": "Galapagar-La Navata",
        "code": null,
        "lines": [
          "C10",
          "C8A",
          "C8B"
        ]
      },
      "geometry": {
        "type": "Point",
        "coordinates": [
          -3.982259,
          40.6003138
        ]
      }
    },
    {
      "type": "Feature",
      "id": "13501",
      "properties": {
        "id": "13501",
        "name": "Galindo",
        "code": null,
        "lines": [
          "C2"
        ]
      },
      "geometry": {
        "type": "Point",
        "coordinates": [
          -3.0101966,
          43.3041349
        ]
      }
    },
    {
      "type": "Feature",
      "id": "13508",
      "properties": {
        "id": "13508",
        "name": "Gallarta",
        "code": null,
        "lines": [
          "C2"
        ]
      },
      "geometry": {
        "type": "Point",
        "coordinates": [
          -3.0674521,
          43.3193319
        ]
      }
    },
    {
      "type": "Feature",
      "id": "05679",
      "properties": {
        "id": "05679",
        "name": "Gama",
        "code": null,
        "lines": [
          "C3"
        ]
      },
      "geometry": {
        "type": "Point",
        "coordinates": [
          -3.52472,
          43.42315
        ]
      }
    },
    {
      "type": "Feature",
      "id": "69110",
      "properties": {
        "id": "69110",
        "name": "Gandia",
        "code": null,
        "lines": [
          "C1"
        ]
      },
      "geometry": {
        "type": "Point",
        "coordinates": [
          -0.1797829,
          38.970514
        ]
      }
    },
    {
      "type": "Feature",
      "id": "05622",
      "properties": {
        "id": "05622",
        "name": "Ganzo",
        "code": null,
        "lines": [
          "C2"
        ]
      },
      "geometry": {
        "type": "Point",
        "coordinates": [
          -4.0702273,
          43.3565281
        ]
      }
    },
    {
      "type": "Feature",
      "id": "71703",
      "properties": {
        "id": "71703",
        "name": "Garraf",
        "code": null,
        "lines": [
          "R2",
          "R2S"
        ]
      },
      "geometry": {
        "type": "Point",
        "coordinates": [
          1.90250383,
          41.2545875
        ]
      }
    },
    {
      "type": "Feature",
      "id": "71706",
      "properties": {
        "id": "71706",
        "name": "Gavà",
        "code": null,
        "lines": [
          "R2",
          "R2S"
        ]
      },
      "geometry": {
        "type": "Point",
        "coordinates": [
          2.01053111,
          41.3034722
        ]
      }
    },
    {
      "type": "Feature",
      "id": "72208",
      "properties": {
        "id": "72208",
        "name": "Gelida",
        "code": null,
        "lines": [
          "R4"
        ]
      },
      "geometry": {
        "type": "Point",
        "coordinates": [
          1.86552988,
          41.4485405
        ]
      }
    },
    {
      "type": "Feature",
      "id": "37002",
      "properties": {
        "id": "37002",
        "name": "Getafe-Centro",
        "code": null,
        "lines": [
          "C4",
          "C4A",
          "C4B"
        ]
      },
      "geometry": {
        "type": "Point",
        "coordinates": [
          -3.7339878,
          40.3100045
        ]
      }
    },
    {
      "type": "Feature",
      "id": "60102",
      "properties": {
        "id": "60102",
        "name": "Getafe-Industrial",
        "code": null,
        "lines": [
          "C3"
        ]
      },
      "geometry": {
        "type": "Point",
        "coordinates": [
          -3.7078359,
          40.3057176
        ]
      }
    },
    {
      "type": "Feature",
      "id": "37011",
      "properties": {
        "id": "37011",
        "name": "Getafe-Sector 3",
        "code": null,
        "lines": [
          "C4",
          "C4A",
          "C4B"
        ]
      },
      "geometry": {
        "type": "Point",
        "coordinates": [
          -3.7374991,
          40.2883893
        ]
      }
    },
    {
      "type": "Feature",
      "id": "05691",
      "properties": {
        "id": "05691",
        "name": "Gibaja",
        "code": null,
        "lines": [
          "C3"
        ]
      },
      "geometry": {
        "type": "Point",
        "coordinates": [
          -3.43831,
          43.28219
        ]
      }
    },
    {
      "type": "Feature",
      "id": "15410",
      "properties": {
        "id": "15410",
        "name": "Gijón-Sanz Crespo",
        "code": null,
        "lines": [
          "C1",
          "C4",
          "C5",
          "C5A"
        ]
      },
      "geometry": {
        "type": "Point",
        "coordinates": [
          -5.6758089,
          43.5377329
        ]
      }
    },
    {
      "type": "Feature",
      "id": "67223",
      "properties": {
        "id": "67223",
        "name": "Gilet",
        "code": null,
        "lines": [
          "C5"
        ]
      },
      "geometry": {
        "type": "Point",
        "coordinates": [
          -0.3206548,
          39.6793985
        ]
      }
    },
    {
      "type": "Feature",
      "id": "79300",
      "properties": {
        "id": "79300",
        "name": "Girona",
        "code": null,
        "lines": [
          "R11",
          "R2N",
          "RG1"
        ]
      },
      "geometry": {
        "type": "Point",
        "coordinates": [
          2.81693689,
          41.9793629
        ]
      }
    },
    {
      "type": "Feature",
      "id": "05629",
      "properties": {
        "id": "05629",
        "name": "Golbardo",
        "code": null,
        "lines": [
          "C2"
        ]
      },
      "geometry": {
        "type": "Point",
        "coordinates": [
          -4.1556282,
          43.3408164
        ]
      }
    },
    {
      "type": "Feature",
      "id": "78404",
      "properties": {
        "id": "78404",
        "name": "Golmés",
        "code": null,
        "lines": [
          "RL3",
          "RL4"
        ]
      },
      "geometry": {
        "type": "Point",
        "coordinates": [
          0.930863,
          41.635929
        ]
      }
    },
    {
      "type": "Feature",
      "id": "05613",
      "properties": {
        "id": "05613",
        "name": "Gornazo",
        "code": null,
        "lines": [
          "C2"
        ]
      },
      "geometry": {
        "type": "Point",
        "coordinates": [
          -3.9886035,
          43.4097025
        ]
      }
    },
    {
      "type": "Feature",
      "id": "05317",
      "properties": {
        "id": "05317",
        "name": "Grado",
        "code": null,
        "lines": [
          "C7"
        ]
      },
      "geometry": {
        "type": "Point",
        "coordinates": [
          -6.0637254,
          43.3945424
        ]
      }
    },
    {
      "type": "Feature",
      "id": "77006",
      "properties": {
        "id": "77006",
        "name": "Granollers-Canovelles",
        "code": null,
        "lines": [
          "R3"
        ]
      },
      "geometry": {
        "type": "Point",
        "coordinates": [
          2.27686073,
          41.6114637
        ]
      }
    },
    {
      "type": "Feature",
      "id": "79100",
      "properties": {
        "id": "79100",
        "name": "Granollers-Centre",
        "code": null,
        "lines": [
          "R11",
          "R2",
          "R2N",
          "R8"
        ]
      },
      "geometry": {
        "type": "Point",
        "coordinates": [
          2.29126962,
          41.5997447
        ]
      }
    },
    {
      "type": "Feature",
      "id": "11512",
      "properties": {
        "id": "11512",
        "name": "Gros",
        "code": null,
        "lines": [
          "C1"
        ]
      },
      "geometry": {
        "type": "Point",
        "coordinates": [
          -1.9738835,
          43.3218457
        ]
      }
    },
    {
      "type": "Feature",
      "id": "50602",
      "properties": {
        "id": "50602",
        "name": "Guadajoz",
        "code": null,
        "lines": [
          "C1"
        ]
      },
      "geometry": {
        "type": "Point",
        "coordinates": [
          -5.6699795,
          37.5814594
        ]
      }
    },
    {
      "type": "Feature",
      "id": "70200",
      "properties": {
        "id": "70200",
        "name": "Guadalajara",
        "code": null,
        "lines": [
          "C2",
          "C7"
        ]
      },